$GPGLL,3158.81,S,11549.05,E
-31.980166666666666 115.8175
$GPGLL,3158.81,S,11549.05,E
-31.980166666666666 115.8175
$GPGLL,3158.81,S,11549.05,E
-31.980166666666666 115.8175
$GPGLL,3158.81,S,11549.05,E
-31.980166666666666 115.8175
$GPGLL,3158.81,S,11549.05,E
-31.980166666666666 115.8175
$GPGLL,3158.81,S,11549.05,E
-31.980166666666666 115.8175
$GPGLL,3158.81,S,11549.05,E
-31.980166666666666 115.8175
$GPGLL,3158.81,S,11549.05,E
-31.980166666666666 115.8175
$GPGLL,3158.81,S,11549.05,E
-31.980166666666666 115.8175
$GPGLL,3158.81,S,11549.05,E
-31.980166666666666 115.8175
$GPGLL,3158.81,S,11549.05,E
-31.980166666666666 115.8175
$GPGLL,3158.81,S,11549.05,E
-31.980166666666666 115.8175
$GPGLL,3158.81,S,11549.05,E
-31.980166666666666 115.8175
$GPGLL,3158.81,S,11549.05,E
-31.980166666666666 115.8175
$GPGLL,3158.81,S,11549.05,E
-31.980166666666666 115.8175
$GPGLL,3158.81,S,11549.05,E
-31.980166666666666 115.8175
$GPGLL,3158.81,S,11549.05,E
-31.980166666666666 115.8175
$GPGLL,3158.81,S,11549.05,E
-31.980166666666666 115.8175
$GPGLL,3158.81,S,11549.05,E
-31.980166666666666 115.8175
$GPGLL,3158.81,S,11549.05,E
-31.980166666666666 115.8175
$GPGLL,3158.81,S,11549.05,E
-31.980166666666666 115.8175
$GPGLL,3158.81,S,11549.05,E
-31.980166666666666 115.8175
$GPGLL,3158.81,S,11549.05,E
-31.980166666666666 115.8175
$GPGLL,3158.81,S,11549.05,E
-31.980166666666666 115.8175
$GPGLL,3158.81,S,11549.05,E
-31.980166666666666 115.8175
$GPGLL,3158.81,S,11549.05,E
-31.980166666666666 115.8175
$GPGLL,3158.81,S,11549.05,E
-31.980166666666666 115.8175
$GPGLL,3158.81,S,11549.05,E
-31.980166666666666 115.8175
$GPGLL,3158.81,S,11549.05,E
-31.980166666666666 115.8175
$GPGLL,3158.81,S,11549.05,E
-31.980166666666666 115.8175
$GPGLL,3158.81,S,11549.05,E
-31.980166666666666 115.8175
$GPGLL,3158.81,S,11549.05,E
-31.980166666666666 115.8175
$GPGLL,3158.81,S,11549.05,E
-31.980166666666666 115.8175
$GPGLL,3158.81,S,11549.05,E
-31.980166666666666 115.8175
$GPGLL,3158.81,S,11549.04,E
-31.980166666666666 115.81733333333334
$GPGLL,3158.81,S,11549.04,E
-31.980166666666666 115.81733333333334
$GPGLL,3158.81,S,11549.04,E
-31.980166666666666 115.81733333333334
$GPGLL,3158.81,S,11549.04,E
-31.980166666666666 115.81733333333334
$GPGLL,3158.81,S,11549.04,E
-31.980166666666666 115.81733333333334
$GPGLL,3158.81,S,11549.04,E
-31.980166666666666 115.81733333333334
$GPGLL,3158.81,S,11549.04,E
-31.980166666666666 115.81733333333334
$GPGLL,3158.81,S,11549.04,E
-31.980166666666666 115.81733333333334
$GPGLL,3158.81,S,11549.04,E
-31.980166666666666 115.81733333333334
$GPGLL,3158.81,S,11549.04,E
-31.980166666666666 115.81733333333334
$GPGLL,3158.81,S,11549.04,E
-31.980166666666666 115.81733333333334
$GPGLL,3158.81,S,11549.04,E
-31.980166666666666 115.81733333333334
$GPGLL,3158.82,S,11549.04,E
-31.980333333333334 115.81733333333334
$GPGLL,3158.82,S,11549.04,E
-31.980333333333334 115.81733333333334
$GPGLL,3158.82,S,11549.04,E
-31.980333333333334 115.81733333333334
$GPGLL,3158.82,S,11549.04,E
-31.980333333333334 115.81733333333334
$GPGLL,3158.82,S,11549.04,E
-31.980333333333334 115.81733333333334
$GPGLL,3158.82,S,11549.04,E
-31.980333333333334 115.81733333333334
$GPGLL,3158.82,S,11549.04,E
-31.980333333333334 115.81733333333334
$GPGLL,3158.82,S,11549.04,E
-31.980333333333334 115.81733333333334
$GPGLL,3158.82,S,11549.04,E
-31.980333333333334 115.81733333333334
$GPGLL,3158.82,S,11549.04,E
-31.980333333333334 115.81733333333334
$GPGLL,3158.82,S,11549.04,E
-31.980333333333334 115.81733333333334
$GPGLL,3158.82,S,11549.04,E
-31.980333333333334 115.81733333333334
$GPGLL,3158.82,S,11549.04,E
-31.980333333333334 115.81733333333334
$GPGLL,3158.82,S,11549.04,E
-31.980333333333334 115.81733333333334
$GPGLL,3158.82,S,11549.04,E
-31.980333333333334 115.81733333333334
$GPGLL,3158.82,S,11549.04,E
-31.980333333333334 115.81733333333334
$GPGLL,3158.82,S,11549.04,E
-31.980333333333334 115.81733333333334
$GPGLL,3158.82,S,11549.04,E
-31.980333333333334 115.81733333333334
$GPGLL,3158.83,S,11549.04,E
-31.9805 115.81733333333334
$GPGLL,3158.83,S,11549.04,E
-31.9805 115.81733333333334
$GPGLL,3158.83,S,11549.05,E
-31.9805 115.8175
$GPGLL,3158.83,S,11549.05,E
-31.9805 115.8175
$GPGLL,3158.83,S,11549.05,E
-31.9805 115.8175
$GPGLL,3158.83,S,11549.05,E
-31.9805 115.8175
$GPGLL,3158.83,S,11549.05,E
-31.9805 115.8175
$GPGLL,3158.83,S,11549.05,E
-31.9805 115.8175
$GPGLL,3158.83,S,11549.05,E
-31.9805 115.8175
$GPGLL,3158.83,S,11549.05,E
-31.9805 115.8175
$GPGLL,3158.83,S,11549.05,E
-31.9805 115.8175
$GPGLL,3158.83,S,11549.05,E
-31.9805 115.8175
$GPGLL,3158.83,S,11549.05,E
-31.9805 115.8175
$GPGLL,3158.83,S,11549.05,E
-31.9805 115.8175
$GPGLL,3158.83,S,11549.05,E
-31.9805 115.8175
$GPGLL,3158.83,S,11549.06,E
-31.9805 115.81766666666667
$GPGLL,3158.83,S,11549.06,E
-31.9805 115.81766666666667
$GPGLL,3158.83,S,11549.06,E
-31.9805 115.81766666666667
$GPGLL,3158.83,S,11549.06,E
-31.9805 115.81766666666667
$GPGLL,3158.83,S,11549.06,E
-31.9805 115.81766666666667
$GPGLL,3158.83,S,11549.06,E
-31.9805 115.81766666666667
$GPGLL,3158.83,S,11549.06,E
-31.9805 115.81766666666667
$GPGLL,3158.83,S,11549.06,E
-31.9805 115.81766666666667
$GPGLL,3158.83,S,11549.06,E
-31.9805 115.81766666666667
$GPGLL,3158.83,S,11549.06,E
-31.9805 115.81766666666667
$GPGLL,3158.83,S,11549.06,E
-31.9805 115.81766666666667
$GPGLL,3158.83,S,11549.06,E
-31.9805 115.81766666666667
$GPGLL,3158.83,S,11549.06,E
-31.9805 115.81766666666667
$GPGLL,3158.83,S,11549.06,E
-31.9805 115.81766666666667
$GPGLL,3158.83,S,11549.07,E
-31.9805 115.81783333333334
$GPGLL,3158.83,S,11549.07,E
-31.9805 115.81783333333334
$GPGLL,3158.83,S,11549.07,E
-31.9805 115.81783333333334
$GPGLL,3158.83,S,11549.07,E
-31.9805 115.81783333333334
$GPGLL,3158.83,S,11549.07,E
-31.9805 115.81783333333334
$GPGLL,3158.83,S,11549.07,E
-31.9805 115.81783333333334
$GPGLL,3158.83,S,11549.07,E
-31.9805 115.81783333333334
$GPGLL,3158.83,S,11549.07,E
-31.9805 115.81783333333334
$GPGLL,3158.83,S,11549.07,E
-31.9805 115.81783333333334
$GPGLL,3158.83,S,11549.07,E
-31.9805 115.81783333333334
$GPGLL,3158.83,S,11549.07,E
-31.9805 115.81783333333334
$GPGLL,3158.83,S,11549.07,E
-31.9805 115.81783333333334
$GPGLL,3158.83,S,11549.08,E
-31.9805 115.818
$GPGLL,3158.83,S,11549.08,E
-31.9805 115.818
$GPGLL,3158.83,S,11549.08,E
-31.9805 115.818
$GPGLL,3158.83,S,11549.08,E
-31.9805 115.818
$GPGLL,3158.83,S,11549.08,E
-31.9805 115.818
$GPGLL,3158.83,S,11549.08,E
-31.9805 115.818
$GPGLL,3158.83,S,11549.08,E
-31.9805 115.818
$GPGLL,3158.83,S,11549.08,E
-31.9805 115.818
$GPGLL,3158.83,S,11549.08,E
-31.9805 115.818
$GPGLL,3158.83,S,11549.08,E
-31.9805 115.818
$GPGLL,3158.83,S,11549.08,E
-31.9805 115.818
$GPGLL,3158.83,S,11549.08,E
-31.9805 115.818
$GPGLL,3158.83,S,11549.08,E
-31.9805 115.818
$GPGLL,3158.83,S,11549.09,E
-31.9805 115.81816666666667
$GPGLL,3158.83,S,11549.09,E
-31.9805 115.81816666666667
$GPGLL,3158.83,S,11549.09,E
-31.9805 115.81816666666667
$GPGLL,3158.83,S,11549.09,E
-31.9805 115.81816666666667
$GPGLL,3158.83,S,11549.09,E
-31.9805 115.81816666666667
$GPGLL,3158.83,S,11549.09,E
-31.9805 115.81816666666667
$GPGLL,3158.83,S,11549.09,E
-31.9805 115.81816666666667
$GPGLL,3158.83,S,11549.09,E
-31.9805 115.81816666666667
$GPGLL,3158.83,S,11549.09,E
-31.9805 115.81816666666667
$GPGLL,3158.83,S,11549.09,E
-31.9805 115.81816666666667
$GPGLL,3158.83,S,11549.09,E
-31.9805 115.81816666666667
$GPGLL,3158.83,S,11549.09,E
-31.9805 115.81816666666667
$GPGLL,3158.83,S,11549.09,E
-31.9805 115.81816666666667
$GPGLL,3158.83,S,11549.10,E
-31.9805 115.81833333333333
$GPGLL,3158.83,S,11549.10,E
-31.9805 115.81833333333333
$GPGLL,3158.83,S,11549.10,E
-31.9805 115.81833333333333
$GPGLL,3158.83,S,11549.10,E
-31.9805 115.81833333333333
$GPGLL,3158.82,S,11549.10,E
-31.980333333333334 115.81833333333333
$GPGLL,3158.82,S,11549.10,E
-31.980333333333334 115.81833333333333
$GPGLL,3158.82,S,11549.10,E
-31.980333333333334 115.81833333333333
$GPGLL,3158.82,S,11549.10,E
-31.980333333333334 115.81833333333333
$GPGLL,3158.82,S,11549.10,E
-31.980333333333334 115.81833333333333
$GPGLL,3158.82,S,11549.10,E
-31.980333333333334 115.81833333333333
$GPGLL,3158.82,S,11549.10,E
-31.980333333333334 115.81833333333333
$GPGLL,3158.82,S,11549.10,E
-31.980333333333334 115.81833333333333
$GPGLL,3158.82,S,11549.10,E
-31.980333333333334 115.81833333333333
$GPGLL,3158.82,S,11549.10,E
-31.980333333333334 115.81833333333333
$GPGLL,3158.82,S,11549.10,E
-31.980333333333334 115.81833333333333
$GPGLL,3158.82,S,11549.10,E
-31.980333333333334 115.81833333333333
$GPGLL,3158.82,S,11549.10,E
-31.980333333333334 115.81833333333333
$GPGLL,3158.82,S,11549.10,E
-31.980333333333334 115.81833333333333
$GPGLL,3158.82,S,11549.10,E
-31.980333333333334 115.81833333333333
$GPGLL,3158.81,S,11549.10,E
-31.980166666666666 115.81833333333333
$GPGLL,3158.81,S,11549.10,E
-31.980166666666666 115.81833333333333
$GPGLL,3158.81,S,11549.10,E
-31.980166666666666 115.81833333333333
$GPGLL,3158.81,S,11549.10,E
-31.980166666666666 115.81833333333333
$GPGLL,3158.81,S,11549.10,E
-31.980166666666666 115.81833333333333
$GPGLL,3158.81,S,11549.10,E
-31.980166666666666 115.81833333333333
$GPGLL,3158.81,S,11549.10,E
-31.980166666666666 115.81833333333333
$GPGLL,3158.81,S,11549.10,E
-31.980166666666666 115.81833333333333
$GPGLL,3158.81,S,11549.10,E
-31.980166666666666 115.81833333333333
$GPGLL,3158.81,S,11549.10,E
-31.980166666666666 115.81833333333333
$GPGLL,3158.81,S,11549.10,E
-31.980166666666666 115.81833333333333
$GPGLL,3158.81,S,11549.10,E
-31.980166666666666 115.81833333333333
$GPGLL,3158.81,S,11549.10,E
-31.980166666666666 115.81833333333333
$GPGLL,3158.81,S,11549.10,E
-31.980166666666666 115.81833333333333
$GPGLL,3158.81,S,11549.10,E
-31.980166666666666 115.81833333333333
$GPGLL,3158.81,S,11549.10,E
-31.980166666666666 115.81833333333333
$GPGLL,3158.81,S,11549.10,E
-31.980166666666666 115.81833333333333
$GPGLL,3158.81,S,11549.10,E
-31.980166666666666 115.81833333333333
$GPGLL,3158.81,S,11549.10,E
-31.980166666666666 115.81833333333333
$GPGLL,3158.81,S,11549.10,E
-31.980166666666666 115.81833333333333
$GPGLL,3158.81,S,11549.10,E
-31.980166666666666 115.81833333333333
$GPGLL,3158.81,S,11549.10,E
-31.980166666666666 115.81833333333333
$GPGLL,3158.81,S,11549.10,E
-31.980166666666666 115.81833333333333
$GPGLL,3158.81,S,11549.10,E
-31.980166666666666 115.81833333333333
$GPGLL,3158.81,S,11549.10,E
-31.980166666666666 115.81833333333333
$GPGLL,3158.81,S,11549.10,E
-31.980166666666666 115.81833333333333
$GPGLL,3158.81,S,11549.10,E
-31.980166666666666 115.81833333333333
$GPGLL,3158.81,S,11549.10,E
-31.980166666666666 115.81833333333333
$GPGLL,3158.81,S,11549.10,E
-31.980166666666666 115.81833333333333
$GPGLL,3158.81,S,11549.10,E
-31.980166666666666 115.81833333333333
$GPGLL,3158.81,S,11549.10,E
-31.980166666666666 115.81833333333333
$GPGLL,3158.81,S,11549.10,E
-31.980166666666666 115.81833333333333
$GPGLL,3158.81,S,11549.10,E
-31.980166666666666 115.81833333333333
$GPGLL,3158.81,S,11549.10,E
-31.980166666666666 115.81833333333333
$GPGLL,3158.82,S,11549.10,E
-31.980333333333334 115.81833333333333
$GPGLL,3158.82,S,11549.10,E
-31.980333333333334 115.81833333333333
$GPGLL,3158.82,S,11549.10,E
-31.980333333333334 115.81833333333333
$GPGLL,3158.82,S,11549.10,E
-31.980333333333334 115.81833333333333
$GPGLL,3158.82,S,11549.10,E
-31.980333333333334 115.81833333333333
$GPGLL,3158.82,S,11549.10,E
-31.980333333333334 115.81833333333333
$GPGLL,3158.82,S,11549.10,E
-31.980333333333334 115.81833333333333
$GPGLL,3158.82,S,11549.10,E
-31.980333333333334 115.81833333333333
$GPGLL,3158.82,S,11549.10,E
-31.980333333333334 115.81833333333333
$GPGLL,3158.82,S,11549.10,E
-31.980333333333334 115.81833333333333
$GPGLL,3158.82,S,11549.10,E
-31.980333333333334 115.81833333333333
$GPGLL,3158.82,S,11549.10,E
-31.980333333333334 115.81833333333333
$GPGLL,3158.82,S,11549.10,E
-31.980333333333334 115.81833333333333
$GPGLL,3158.82,S,11549.10,E
-31.980333333333334 115.81833333333333
$GPGLL,3158.83,S,11549.10,E
-31.9805 115.81833333333333
$GPGLL,3158.83,S,11549.10,E
-31.9805 115.81833333333333
$GPGLL,3158.83,S,11549.10,E
-31.9805 115.81833333333333
$GPGLL,3158.83,S,11549.10,E
-31.9805 115.81833333333333
$GPGLL,3158.83,S,11549.10,E
-31.9805 115.81833333333333
$GPGLL,3158.83,S,11549.10,E
-31.9805 115.81833333333333
$GPGLL,3158.83,S,11549.10,E
-31.9805 115.81833333333333
$GPGLL,3158.83,S,11549.10,E
-31.9805 115.81833333333333
$GPGLL,3158.83,S,11549.10,E
-31.9805 115.81833333333333
$GPGLL,3158.83,S,11549.10,E
-31.9805 115.81833333333333
$GPGLL,3158.83,S,11549.09,E
-31.9805 115.81816666666667
$GPGLL,3158.83,S,11549.09,E
-31.9805 115.81816666666667
$GPGLL,3158.83,S,11549.09,E
-31.9805 115.81816666666667
$GPGLL,3158.83,S,11549.09,E
-31.9805 115.81816666666667
$GPGLL,3158.83,S,11549.09,E
-31.9805 115.81816666666667
$GPGLL,3158.83,S,11549.09,E
-31.9805 115.81816666666667
$GPGLL,3158.83,S,11549.09,E
-31.9805 115.81816666666667
$GPGLL,3158.83,S,11549.09,E
-31.9805 115.81816666666667
$GPGLL,3158.83,S,11549.09,E
-31.9805 115.81816666666667
$GPGLL,3158.83,S,11549.09,E
-31.9805 115.81816666666667
$GPGLL,3158.83,S,11549.09,E
-31.9805 115.81816666666667
$GPGLL,3158.83,S,11549.09,E
-31.9805 115.81816666666667
$GPGLL,3158.83,S,11549.08,E
-31.9805 115.818
$GPGLL,3158.83,S,11549.08,E
-31.9805 115.818
$GPGLL,3158.83,S,11549.08,E
-31.9805 115.818
$GPGLL,3158.83,S,11549.08,E
-31.9805 115.818
$GPGLL,3158.83,S,11549.08,E
-31.9805 115.818
$GPGLL,3158.83,S,11549.08,E
-31.9805 115.818
$GPGLL,3158.83,S,11549.08,E
-31.9805 115.818
$GPGLL,3158.83,S,11549.08,E
-31.9805 115.818
$GPGLL,3158.82,S,11549.08,E
-31.980333333333334 115.818
$GPGLL,3158.82,S,11549.08,E
-31.980333333333334 115.818
$GPGLL,3158.82,S,11549.08,E
-31.980333333333334 115.818
$GPGLL,3158.82,S,11549.08,E
-31.980333333333334 115.818
$GPGLL,3158.82,S,11549.08,E
-31.980333333333334 115.818
$GPGLL,3158.82,S,11549.08,E
-31.980333333333334 115.818
$GPGLL,3158.82,S,11549.08,E
-31.980333333333334 115.818
$GPGLL,3158.82,S,11549.08,E
-31.980333333333334 115.818
$GPGLL,3158.82,S,11549.08,E
-31.980333333333334 115.818
$GPGLL,3158.82,S,11549.08,E
-31.980333333333334 115.818
$GPGLL,3158.82,S,11549.08,E
-31.980333333333334 115.818
$GPGLL,3158.82,S,11549.08,E
-31.980333333333334 115.818
$GPGLL,3158.82,S,11549.08,E
-31.980333333333334 115.818
$GPGLL,3158.82,S,11549.08,E
-31.980333333333334 115.818
$GPGLL,3158.81,S,11549.08,E
-31.980166666666666 115.818
$GPGLL,3158.81,S,11549.08,E
-31.980166666666666 115.818
$GPGLL,3158.81,S,11549.08,E
-31.980166666666666 115.818
$GPGLL,3158.81,S,11549.08,E
-31.980166666666666 115.818
$GPGLL,3158.81,S,11549.08,E
-31.980166666666666 115.818
$GPGLL,3158.81,S,11549.08,E
-31.980166666666666 115.818
$GPGLL,3158.81,S,11549.08,E
-31.980166666666666 115.818
$GPGLL,3158.81,S,11549.08,E
-31.980166666666666 115.818
$GPGLL,3158.81,S,11549.08,E
-31.980166666666666 115.818
$GPGLL,3158.81,S,11549.08,E
-31.980166666666666 115.818
$GPGLL,3158.81,S,11549.07,E
-31.980166666666666 115.81783333333334
$GPGLL,3158.81,S,11549.07,E
-31.980166666666666 115.81783333333334
$GPGLL,3158.81,S,11549.07,E
-31.980166666666666 115.81783333333334
$GPGLL,3158.81,S,11549.07,E
-31.980166666666666 115.81783333333334
$GPGLL,3158.81,S,11549.07,E
-31.980166666666666 115.81783333333334
$GPGLL,3158.81,S,11549.07,E
-31.980166666666666 115.81783333333334
$GPGLL,3158.81,S,11549.07,E
-31.980166666666666 115.81783333333334
$GPGLL,3158.81,S,11549.07,E
-31.980166666666666 115.81783333333334
$GPGLL,3158.81,S,11549.07,E
-31.980166666666666 115.81783333333334
$GPGLL,3158.81,S,11549.07,E
-31.980166666666666 115.81783333333334
$GPGLL,3158.81,S,11549.07,E
-31.980166666666666 115.81783333333334
$GPGLL,3158.81,S,11549.07,E
-31.980166666666666 115.81783333333334
$GPGLL,3158.81,S,11549.06,E
-31.980166666666666 115.81766666666667
$GPGLL,3158.81,S,11549.06,E
-31.980166666666666 115.81766666666667
$GPGLL,3158.81,S,11549.06,E
-31.980166666666666 115.81766666666667
$GPGLL,3158.81,S,11549.06,E
-31.980166666666666 115.81766666666667
$GPGLL,3158.81,S,11549.06,E
-31.980166666666666 115.81766666666667
$GPGLL,3158.81,S,11549.06,E
-31.980166666666666 115.81766666666667
$GPGLL,3158.81,S,11549.06,E
-31.980166666666666 115.81766666666667
$GPGLL,3158.81,S,11549.06,E
-31.980166666666666 115.81766666666667
$GPGLL,3158.81,S,11549.06,E
-31.980166666666666 115.81766666666667
$GPGLL,3158.81,S,11549.06,E
-31.980166666666666 115.81766666666667
$GPGLL,3158.81,S,11549.06,E
-31.980166666666666 115.81766666666667
$GPGLL,3158.81,S,11549.06,E
-31.980166666666666 115.81766666666667
$GPGLL,3158.81,S,11549.05,E
-31.980166666666666 115.8175
$GPGLL,3158.81,S,11549.05,E
-31.980166666666666 115.8175
$GPGLL,3158.81,S,11549.05,E
-31.980166666666666 115.8175
$GPGLL,3158.81,S,11549.05,E
-31.980166666666666 115.8175
$GPGLL,3158.81,S,11549.05,E
-31.980166666666666 115.8175
$GPGLL,3158.81,S,11549.05,E
-31.980166666666666 115.8175
$GPGLL,3158.81,S,11549.05,E
-31.980166666666666 115.8175
$GPGLL,3158.82,S,11549.05,E
-31.980333333333334 115.8175
$GPGLL,3158.82,S,11549.05,E
-31.980333333333334 115.8175
$GPGLL,3158.82,S,11549.05,E
-31.980333333333334 115.8175
$GPGLL,3158.82,S,11549.05,E
-31.980333333333334 115.8175
$GPGLL,3158.82,S,11549.05,E
-31.980333333333334 115.8175
$GPGLL,3158.82,S,11549.05,E
-31.980333333333334 115.8175
$GPGLL,3158.82,S,11549.05,E
-31.980333333333334 115.8175
$GPGLL,3158.82,S,11549.05,E
-31.980333333333334 115.8175
$GPGLL,3158.82,S,11549.05,E
-31.980333333333334 115.8175
$GPGLL,3158.82,S,11549.05,E
-31.980333333333334 115.8175
$GPGLL,3158.82,S,11549.05,E
-31.980333333333334 115.8175
$GPGLL,3158.82,S,11549.05,E
-31.980333333333334 115.8175
$GPGLL,3158.82,S,11549.05,E
-31.980333333333334 115.8175
$GPGLL,3158.82,S,11549.04,E
-31.980333333333334 115.81733333333334
$GPGLL,3158.82,S,11549.04,E
-31.980333333333334 115.81733333333334
$GPGLL,3158.83,S,11549.04,E
-31.9805 115.81733333333334
$GPGLL,3158.83,S,11549.04,E
-31.9805 115.81733333333334
$GPGLL,3158.83,S,11549.04,E
-31.9805 115.81733333333334
$GPGLL,3158.83,S,11549.04,E
-31.9805 115.81733333333334
$GPGLL,3158.83,S,11549.04,E
-31.9805 115.81733333333334
$GPGLL,3158.83,S,11549.04,E
-31.9805 115.81733333333334
$GPGLL,3158.83,S,11549.04,E
-31.9805 115.81733333333334
$GPGLL,3158.83,S,11549.04,E
-31.9805 115.81733333333334
$GPGLL,3158.83,S,11549.04,E
-31.9805 115.81733333333334
$GPGLL,3158.83,S,11549.04,E
-31.9805 115.81733333333334
$GPGLL,3158.83,S,11549.04,E
-31.9805 115.81733333333334
$GPGLL,3158.83,S,11549.04,E
-31.9805 115.81733333333334
$GPGLL,3158.83,S,11549.04,E
-31.9805 115.81733333333334
$GPGLL,3158.83,S,11549.04,E
-31.9805 115.81733333333334
$GPGLL,3158.83,S,11549.04,E
-31.9805 115.81733333333334
$GPGLL,3158.83,S,11549.04,E
-31.9805 115.81733333333334
$GPGLL,3158.83,S,11549.04,E
-31.9805 115.81733333333334
$GPGLL,3158.83,S,11549.04,E
-31.9805 115.81733333333334
$GPGLL,3158.83,S,11549.04,E
-31.9805 115.81733333333334
$GPGLL,3158.83,S,11549.04,E
-31.9805 115.81733333333334
$GPGLL,3158.83,S,11549.04,E
-31.9805 115.81733333333334
$GPGLL,3158.83,S,11549.04,E
-31.9805 115.81733333333334
$GPGLL,3158.83,S,11549.04,E
-31.9805 115.81733333333334
$GPGLL,3158.83,S,11549.04,E
-31.9805 115.81733333333334
$GPGLL,3158.83,S,11549.04,E
-31.9805 115.81733333333334
$GPGLL,3158.83,S,11549.04,E
-31.9805 115.81733333333334
$GPGLL,3158.83,S,11549.04,E
-31.9805 115.81733333333334
$GPGLL,3158.83,S,11549.04,E
-31.9805 115.81733333333334
$GPGLL,3158.83,S,11549.04,E
-31.9805 115.81733333333334
$GPGLL,3158.83,S,11549.04,E
-31.9805 115.81733333333334
$GPGLL,3158.83,S,11549.04,E
-31.9805 115.81733333333334
$GPGLL,3158.83,S,11549.04,E
-31.9805 115.81733333333334
$GPGLL,3158.83,S,11549.04,E
-31.9805 115.81733333333334
$GPGLL,3158.83,S,11549.04,E
-31.9805 115.81733333333334
$GPGLL,3158.83,S,11549.04,E
-31.9805 115.81733333333334
$GPGLL,3158.83,S,11549.04,E
-31.9805 115.81733333333334
$GPGLL,3158.83,S,11549.04,E
-31.9805 115.81733333333334
$GPGLL,3158.83,S,11549.04,E
-31.9805 115.81733333333334
$GPGLL,3158.83,S,11549.04,E
-31.9805 115.81733333333334
$GPGLL,3158.83,S,11549.04,E
-31.9805 115.81733333333334
$GPGLL,3158.83,S,11549.04,E
-31.9805 115.81733333333334
$GPGLL,3158.83,S,11549.04,E
-31.9805 115.81733333333334
$GPGLL,3158.83,S,11549.04,E
-31.9805 115.81733333333334
$GPGLL,3158.83,S,11549.04,E
-31.9805 115.81733333333334
$GPGLL,3158.83,S,11549.04,E
-31.9805 115.81733333333334
$GPGLL,3158.83,S,11549.04,E
-31.9805 115.81733333333334
$GPGLL,3158.83,S,11549.04,E
-31.9805 115.81733333333334
$GPGLL,3158.83,S,11549.04,E
-31.9805 115.81733333333334
$GPGLL,3158.83,S,11549.04,E
-31.9805 115.81733333333334
$GPGLL,3158.83,S,11549.04,E
-31.9805 115.81733333333334
$GPGLL,3158.83,S,11549.04,E
-31.9805 115.81733333333334
$GPGLL,3158.83,S,11549.04,E
-31.9805 115.81733333333334
$GPGLL,3158.83,S,11549.04,E
-31.9805 115.81733333333334
$GPGLL,3158.83,S,11549.04,E
-31.9805 115.81733333333334
$GPGLL,3158.83,S,11549.04,E
-31.9805 115.81733333333334
$GPGLL,3158.83,S,11549.04,E
-31.9805 115.81733333333334
$GPGLL,3158.83,S,11549.04,E
-31.9805 115.81733333333334
$GPGLL,3158.83,S,11549.04,E
-31.9805 115.81733333333334
$GPGLL,3158.83,S,11549.04,E
-31.9805 115.81733333333334
$GPGLL,3158.83,S,11549.04,E
-31.9805 115.81733333333334
$GPGLL,3158.83,S,11549.04,E
-31.9805 115.81733333333334
$GPGLL,3158.83,S,11549.04,E
-31.9805 115.81733333333334
$GPGLL,3158.83,S,11549.04,E
-31.9805 115.81733333333334
$GPGLL,3158.83,S,11549.04,E
-31.9805 115.81733333333334
$GPGLL,3158.83,S,11549.04,E
-31.9805 115.81733333333334
$GPGLL,3158.83,S,11549.04,E
-31.9805 115.81733333333334
$GPGLL,3158.83,S,11549.04,E
-31.9805 115.81733333333334
$GPGLL,3158.83,S,11549.04,E
-31.9805 115.81733333333334
$GPGLL,3158.83,S,11549.04,E
-31.9805 115.81733333333334
$GPGLL,3158.83,S,11549.04,E
-31.9805 115.81733333333334
$GPGLL,3158.83,S,11549.04,E
-31.9805 115.81733333333334
$GPGLL,3158.83,S,11549.04,E
-31.9805 115.81733333333334
$GPGLL,3158.83,S,11549.04,E
-31.9805 115.81733333333334
$GPGLL,3158.83,S,11549.04,E
-31.9805 115.81733333333334
$GPGLL,3158.83,S,11549.04,E
-31.9805 115.81733333333334
$GPGLL,3158.83,S,11549.04,E
-31.9805 115.81733333333334
$GPGLL,3158.83,S,11549.04,E
-31.9805 115.81733333333334
$GPGLL,3158.83,S,11549.04,E
-31.9805 115.81733333333334
$GPGLL,3158.83,S,11549.04,E
-31.9805 115.81733333333334
$GPGLL,3158.83,S,11549.04,E
-31.9805 115.81733333333334
$GPGLL,3158.83,S,11549.04,E
-31.9805 115.81733333333334
$GPGLL,3158.83,S,11549.04,E
-31.9805 115.81733333333334
$GPGLL,3158.83,S,11549.04,E
-31.9805 115.81733333333334
$GPGLL,3158.83,S,11549.04,E
-31.9805 115.81733333333334
$GPGLL,3158.83,S,11549.04,E
-31.9805 115.81733333333334
$GPGLL,3158.83,S,11549.04,E
-31.9805 115.81733333333334
$GPGLL,3158.83,S,11549.04,E
-31.9805 115.81733333333334
$GPGLL,3158.83,S,11549.04,E
-31.9805 115.81733333333334
$GPGLL,3158.83,S,11549.04,E
-31.9805 115.81733333333334
$GPGLL,3158.83,S,11549.04,E
-31.9805 115.81733333333334
$GPGLL,3158.83,S,11549.04,E
-31.9805 115.81733333333334
$GPGLL,3158.83,S,11549.04,E
-31.9805 115.81733333333334
$GPGLL,3158.83,S,11549.04,E
-31.9805 115.81733333333334
$GPGLL,3158.83,S,11549.04,E
-31.9805 115.81733333333334
$GPGLL,3158.83,S,11549.04,E
-31.9805 115.81733333333334
$GPGLL,3158.83,S,11549.04,E
-31.9805 115.81733333333334
$GPGLL,3158.83,S,11549.04,E
-31.9805 115.81733333333334
$GPGLL,3158.83,S,11549.04,E
-31.9805 115.81733333333334
$GPGLL,3158.83,S,11549.04,E
-31.9805 115.81733333333334
$GPGLL,3158.83,S,11549.04,E
-31.9805 115.81733333333334
$GPGLL,3158.83,S,11549.04,E
-31.9805 115.81733333333334
$GPGLL,3158.83,S,11549.04,E
-31.9805 115.81733333333334
$GPGLL,3158.83,S,11549.04,E
-31.9805 115.81733333333334
$GPGLL,3158.83,S,11549.04,E
-31.9805 115.81733333333334
$GPGLL,3158.83,S,11549.04,E
-31.9805 115.81733333333334
$GPGLL,3158.83,S,11549.04,E
-31.9805 115.81733333333334
$GPGLL,3158.83,S,11549.04,E
-31.9805 115.81733333333334
$GPGLL,3158.83,S,11549.04,E
-31.9805 115.81733333333334
$GPGLL,3158.83,S,11549.04,E
-31.9805 115.81733333333334
$GPGLL,3158.83,S,11549.04,E
-31.9805 115.81733333333334
$GPGLL,3158.83,S,11549.04,E
-31.9805 115.81733333333334
$GPGLL,3158.83,S,11549.04,E
-31.9805 115.81733333333334
$GPGLL,3158.83,S,11549.04,E
-31.9805 115.81733333333334
$GPGLL,3158.83,S,11549.04,E
-31.9805 115.81733333333334
$GPGLL,3158.83,S,11549.04,E
-31.9805 115.81733333333334
$GPGLL,3158.83,S,11549.04,E
-31.9805 115.81733333333334
$GPGLL,3158.83,S,11549.04,E
-31.9805 115.81733333333334
$GPGLL,3158.83,S,11549.04,E
-31.9805 115.81733333333334
$GPGLL,3158.83,S,11549.04,E
-31.9805 115.81733333333334
$GPGLL,3158.83,S,11549.04,E
-31.9805 115.81733333333334
$GPGLL,3158.83,S,11549.04,E
-31.9805 115.81733333333334
$GPGLL,3158.83,S,11549.04,E
-31.9805 115.81733333333334
$GPGLL,3158.83,S,11549.04,E
-31.9805 115.81733333333334
$GPGLL,3158.83,S,11549.04,E
-31.9805 115.81733333333334
$GPGLL,3158.83,S,11549.04,E
-31.9805 115.81733333333334
$GPGLL,3158.83,S,11549.04,E
-31.9805 115.81733333333334
$GPGLL,3158.83,S,11549.04,E
-31.9805 115.81733333333334
$GPGLL,3158.83,S,11549.04,E
-31.9805 115.81733333333334
$GPGLL,3158.83,S,11549.04,E
-31.9805 115.81733333333334
$GPGLL,3158.83,S,11549.04,E
-31.9805 115.81733333333334
$GPGLL,3158.83,S,11549.04,E
-31.9805 115.81733333333334
$GPGLL,3158.83,S,11549.04,E
-31.9805 115.81733333333334
$GPGLL,3158.83,S,11549.04,E
-31.9805 115.81733333333334
$GPGLL,3158.83,S,11549.04,E
-31.9805 115.81733333333334
$GPGLL,3158.83,S,11549.04,E
-31.9805 115.81733333333334
$GPGLL,3158.83,S,11549.04,E
-31.9805 115.81733333333334
$GPGLL,3158.83,S,11549.04,E
-31.9805 115.81733333333334
$GPGLL,3158.83,S,11549.04,E
-31.9805 115.81733333333334
$GPGLL,3158.83,S,11549.04,E
-31.9805 115.81733333333334
$GPGLL,3158.83,S,11549.04,E
-31.9805 115.81733333333334
$GPGLL,3158.83,S,11549.04,E
-31.9805 115.81733333333334
$GPGLL,3158.83,S,11549.04,E
-31.9805 115.81733333333334
$GPGLL,3158.83,S,11549.04,E
-31.9805 115.81733333333334
$GPGLL,3158.83,S,11549.04,E
-31.9805 115.81733333333334
$GPGLL,3158.83,S,11549.04,E
-31.9805 115.81733333333334
$GPGLL,3158.83,S,11549.04,E
-31.9805 115.81733333333334
$GPGLL,3158.83,S,11549.04,E
-31.9805 115.81733333333334
$GPGLL,3158.83,S,11549.04,E
-31.9805 115.81733333333334
$GPGLL,3158.83,S,11549.04,E
-31.9805 115.81733333333334
$GPGLL,3158.83,S,11549.04,E
-31.9805 115.81733333333334
$GPGLL,3158.83,S,11549.04,E
-31.9805 115.81733333333334
$GPGLL,3158.83,S,11549.04,E
-31.9805 115.81733333333334
$GPGLL,3158.83,S,11549.04,E
-31.9805 115.81733333333334
$GPGLL,3158.83,S,11549.04,E
-31.9805 115.81733333333334
$GPGLL,3158.83,S,11549.04,E
-31.9805 115.81733333333334
$GPGLL,3158.83,S,11549.04,E
-31.9805 115.81733333333334
$GPGLL,3158.83,S,11549.04,E
-31.9805 115.81733333333334
$GPGLL,3158.83,S,11549.04,E
-31.9805 115.81733333333334
$GPGLL,3158.83,S,11549.04,E
-31.9805 115.81733333333334
$GPGLL,3158.83,S,11549.04,E
-31.9805 115.81733333333334
$GPGLL,3158.83,S,11549.04,E
-31.9805 115.81733333333334
$GPGLL,3158.83,S,11549.04,E
-31.9805 115.81733333333334
$GPGLL,3158.83,S,11549.04,E
-31.9805 115.81733333333334
$GPGLL,3158.83,S,11549.04,E
-31.9805 115.81733333333334
$GPGLL,3158.83,S,11549.04,E
-31.9805 115.81733333333334
