$GPGLL,3315.94573754,S,11815.08671444,E,073735.00,A,D*7A
$SYSTIME,20190826,153735
$GPGLL,3315.94574590,S,11815.08670823,E,073736.00,A,D*78
$GPGLL,3315.94575320,S,11815.08670233,E,073737.00,A,D*7E
$GPGLL,3315.94575933,S,11815.08669792,E,073738.00,A,D*7F
$GPGLL,3315.94576805,S,11815.08669157,E,073739.00,A,D*76
$GPGLL,3315.94577221,S,11815.08668668,E,073740.00,A,D*7F
$GPGLL,3315.94577983,S,11815.08668034,E,073741.00,A,D*72
$GPGLL,3315.94578800,S,11815.08667398,E,073742.00,A,D*7E
$GPGLL,3315.94587138,S,11815.08667789,E,073743.00,A,D*79
$GPGLL,3315.94620552,S,11815.08665694,E,073744.00,A,D*77
$GPGLL,3315.94680023,S,11815.08668928,E,073745.00,A,D*7A
$GPGLL,3315.94770225,S,11815.08669818,E,073746.00,A,D*70
$GPGLL,3315.94893234,S,11815.08671164,E,073747.00,A,D*78
$GPGLL,3315.95040432,S,11815.08667966,E,073748.00,A,D*7D
$GPGLL,3315.95211867,S,11815.08670755,E,073749.00,A,D*7E
$GPGLL,3315.95394640,S,11815.08673724,E,073750.00,A,D*74
$GPGLL,3315.95588885,S,11815.08678324,E,073751.00,A,D*76
$GPGLL,3315.95803210,S,11815.08681547,E,073752.00,A,D*78
$GPGLL,3315.96034093,S,11815.08683811,E,073753.00,A,D*73
$GPGLL,3315.96279205,S,11815.08687073,E,073754.00,A,D*7A
$GPGLL,3315.96540931,S,11815.08686577,E,073755.00,A,D*7A
$GPGLL,3315.96822407,S,11815.08688996,E,073756.00,A,D*75
$GPGLL,3315.97117159,S,11815.08696091,E,073757.00,A,D*75
$GPGLL,3315.97426472,S,11815.08706315,E,073758.00,A,D*76
$GPGLL,3315.97740856,S,11815.08712688,E,073759.00,A,D*7A
$GPGLL,3315.98063834,S,11815.08717040,E,073800.00,A,D*73
$GPGLL,3315.98390258,S,11815.08721796,E,073801.00,A,D*74
$GPGLL,3315.98718875,S,11815.08725509,E,073802.00,A,D*76
$GPGLL,3315.99049320,S,11815.08730980,E,073803.00,A,D*77
$GPGLL,3315.99385439,S,11815.08734458,E,073804.00,A,D*70
$GPGLL,3315.99720199,S,11815.08743115,E,073805.00,A,D*79
$GPGLL,3316.00061550,S,11815.08754890,E,073806.00,A,D*78
$GPGLL,3316.00404744,S,11815.08767012,E,073807.00,A,D*7B
$GPGLL,3316.00751542,S,11815.08777353,E,073808.00,A,D*74
$GPGLL,3316.01100412,S,11815.08780359,E,073809.00,A,D*70
$GPGLL,3316.01444498,S,11815.08778294,E,073810.00,A,D*78
$GPGLL,3316.01785684,S,11815.08783142,E,073811.00,A,D*74
$GPGLL,3316.02120294,S,11815.08789422,E,073812.00,A,D*71
$GPGLL,3316.02446464,S,11815.08794830,E,073813.00,A,D*7F
$GPGLL,3316.02775581,S,11815.08803920,E,073814.00,A,D*70
$GPGLL,3316.03089298,S,11815.08806459,E,073815.00,A,D*7D
$GPGLL,3316.03385676,S,11815.08810007,E,073816.00,A,D*7D
$GPGLL,3316.03663769,S,11815.08816740,E,073817.00,A,D*7C
$GPGLL,3316.03932719,S,11815.08821288,E,073818.00,A,D*7A
$GPGLL,3316.04175664,S,11815.08817918,E,073819.00,A,D*7B
$GPGLL,3316.04392794,S,11815.08818925,E,073820.00,A,D*75
$GPGLL,3316.04591176,S,11815.08826558,E,073821.00,A,D*70
$GPGLL,3316.04739470,S,11815.08839420,E,073822.00,A,D*70
$GPGLL,3316.04860915,S,11815.08854624,E,073823.00,A,D*71
$GPGLL,3316.04965574,S,11815.08863100,E,073824.00,A,D*7C
$GPGLL,3316.05066011,S,11815.08866537,E,073825.00,A,D*75
$GPGLL,3316.05156089,S,11815.08871598,E,073826.00,A,D*76
$GPGLL,3316.05241451,S,11815.08884880,E,073827.00,A,D*7D
$GPGLL,3316.05332091,S,11815.08889812,E,073828.00,A,D*79
$GPGLL,3316.05421363,S,11815.08893041,E,073829.00,A,D*76
$GPGLL,3316.05519840,S,11815.08888234,E,073830.00,A,D*74
$GPGLL,3316.05645644,S,11815.08877707,E,073831.00,A,D*70
$GPGLL,3316.05791109,S,11815.08866432,E,073832.00,A,D*70
$GPGLL,3316.05958989,S,11815.08860943,E,073833.00,A,D*77
$GPGLL,3316.06145601,S,11815.08859208,E,073834.00,A,D*76
$GPGLL,3316.06340366,S,11815.08870255,E,073835.00,A,D*77
$GPGLL,3316.06544254,S,11815.08872689,E,073836.00,A,D*71
$GPGLL,3316.06757947,S,11815.08872211,E,073837.00,A,D*7C
$GPGLL,3316.06978825,S,11815.08878340,E,073838.00,A,D*7A
$GPGLL,3316.07196057,S,11815.08879855,E,073839.00,A,D*71
$GPGLL,3316.07402096,S,11815.08855238,E,073840.00,A,D*75
$GPGLL,3316.07583924,S,11815.08808764,E,073841.00,A,D*78
$GPGLL,3316.07744077,S,11815.08776779,E,073842.00,A,D*77
$GPGLL,3316.07897987,S,11815.08769586,E,073843.00,A,D*7D
$GPGLL,3316.08047737,S,11815.08814789,E,073844.00,A,D*7D
$GPGLL,3316.08172977,S,11815.08921535,E,073845.00,A,D*73
$GPGLL,3316.08251109,S,11815.09074988,E,073846.00,A,D*71
$GPGLL,3316.08272811,S,11815.09258416,E,073847.00,A,D*77
$GPGLL,3316.08223046,S,11815.09430507,E,073848.00,A,D*7F
$GPGLL,3316.08118285,S,11815.09556194,E,073849.00,A,D*77
$GPGLL,3316.07965254,S,11815.09629293,E,073850.00,A,D*71
$GPGLL,3316.07795621,S,11815.09632223,E,073851.00,A,D*76
$GPGLL,3316.07634629,S,11815.09595894,E,073852.00,A,D*7F
$GPGLL,3316.07478451,S,11815.09560426,E,073853.00,A,D*76
$GPGLL,3316.07328167,S,11815.09543211,E,073854.00,A,D*70
$GPGLL,3316.07201382,S,11815.09521790,E,073855.00,A,D*7A
$GPGLL,3316.07082805,S,11815.09500317,E,073856.00,A,D*7C
$GPGLL,3316.06972846,S,11815.09477821,E,073857.00,A,D*72
$GPGLL,3316.06863331,S,11815.09456037,E,073858.00,A,D*7B
$GPGLL,3316.06757076,S,11815.09443293,E,073859.00,A,D*7A
$GPGLL,3316.06674023,S,11815.09437480,E,073900.00,A,D*70
$GPGLL,3316.06598849,S,11815.09436322,E,073901.00,A,D*7A
$GPGLL,3316.06527705,S,11815.09435748,E,073902.00,A,D*71
$GPGLL,3316.06466255,S,11815.09435643,E,073903.00,A,D*7E
$GPGLL,3316.06403653,S,11815.09439840,E,073904.00,A,D*79
$GPGLL,3316.06356072,S,11815.09433196,E,073905.00,A,D*72
$GPGLL,3316.06313917,S,11815.09435067,E,073906.00,A,D*73
$GPGLL,3316.06263957,S,11815.09429816,E,073907.00,A,D*73
$GPGLL,3316.06200157,S,11815.09415414,E,073908.00,A,D*70
$GPGLL,3316.06153024,S,11815.09428349,E,073909.00,A,D*70
$GPGLL,3316.06093426,S,11815.09425989,E,073910.00,A,D*78
$GPGLL,3316.06024707,S,11815.09426789,E,073911.00,A,D*78
$GPGLL,3316.05961073,S,11815.09425021,E,073912.00,A,D*72
$GPGLL,3316.05887808,S,11815.09435721,E,073913.00,A,D*78
$GPGLL,3316.05813947,S,11815.09439668,E,073914.00,A,D*78
$GPGLL,3316.05735970,S,11815.09421760,E,073915.00,A,D*76
$GPGLL,3316.05650356,S,11815.09426665,E,073916.00,A,D*7A
$GPGLL,3316.05556146,S,11815.09428855,E,073917.00,A,D*7E
$GPGLL,3316.05452324,S,11815.09425355,E,073918.00,A,D*74
$GPGLL,3316.05337216,S,11815.09423708,E,073919.00,A,D*7B
$GPGLL,3316.05188414,S,11815.09420008,E,073920.00,A,D*77
$GPGLL,3316.05001142,S,11815.09409997,E,073921.00,A,D*74
$GPGLL,3316.04793655,S,11815.09410547,E,073922.00,A,D*72
$GPGLL,3316.04574110,S,11815.09407686,E,073923.00,A,D*76
$GPGLL,3316.04335989,S,11815.09409390,E,073924.00,A,D*76
$GPGLL,3316.04081301,S,11815.09408930,E,073925.00,A,D*70
$GPGLL,3316.03816587,S,11815.09405787,E,073926.00,A,D*75
$GPGLL,3316.03539444,S,11815.09405313,E,073927.00,A,D*73
$GPGLL,3316.03256338,S,11815.09403728,E,073928.00,A,D*74
$GPGLL,3316.02970115,S,11815.09397714,E,073929.00,A,D*73
$GPGLL,3316.02678240,S,11815.09395985,E,073930.00,A,D*7B
$GPGLL,3316.02383761,S,11815.09388635,E,073931.00,A,D*75
$GPGLL,3316.02090046,S,11815.09381447,E,073932.00,A,D*7B
$GPGLL,3316.01795488,S,11815.09375236,E,073933.00,A,D*76
$GPGLL,3316.01496997,S,11815.09368605,E,073934.00,A,D*7A
$GPGLL,3316.01197942,S,11815.09366841,E,073935.00,A,D*77
$GPGLL,3316.00902472,S,11815.09363108,E,073936.00,A,D*7E
$GPGLL,3316.00603426,S,11815.09361825,E,073937.00,A,D*74
$GPGLL,3316.00305978,S,11815.09356595,E,073938.00,A,D*7C
$GPGLL,3316.00013154,S,11815.09352304,E,073939.00,A,D*75
$GPGLL,3315.99721686,S,11815.09345493,E,073940.00,A,D*79
$GPGLL,3315.99431145,S,11815.09335695,E,073941.00,A,D*71
$GPGLL,3315.99146544,S,11815.09327739,E,073942.00,A,D*76
$GPGLL,3315.98863838,S,11815.09322996,E,073943.00,A,D*70
$GPGLL,3315.98586672,S,11815.09317054,E,073944.00,A,D*70
$GPGLL,3315.98305327,S,11815.09311486,E,073945.00,A,D*74
$GPGLL,3315.98020898,S,11815.09306687,E,073946.00,A,D*79
$GPGLL,3315.97737206,S,11815.09306104,E,073947.00,A,D*77
$GPGLL,3315.97451150,S,11815.09301852,E,073948.00,A,D*76
$GPGLL,3315.97167981,S,11815.09297479,E,073949.00,A,D*78
$GPGLL,3315.96883178,S,11815.09293954,E,073950.00,A,D*7A
$GPGLL,3315.96604608,S,11815.09289229,E,073951.00,A,D*70
$GPGLL,3315.96328539,S,11815.09281721,E,073952.00,A,D*7C
$GPGLL,3315.96050836,S,11815.09271495,E,073953.00,A,D*70
$GPGLL,3315.95768789,S,11815.09265439,E,073954.00,A,D*70
$GPGLL,3315.95482773,S,11815.09259383,E,073955.00,A,D*7A
$GPGLL,3315.95190298,S,11815.09254532,E,073956.00,A,D*7E
$GPGLL,3315.94891459,S,11815.09251286,E,073957.00,A,D*70
$GPGLL,3315.94590499,S,11815.09247511,E,073958.00,A,D*71
$GPGLL,3315.94292590,S,11815.09243992,E,073959.00,A,D*7E
$GPGLL,3315.94000760,S,11815.09241863,E,074000.00,A,D*75
$GPGLL,3315.93708805,S,11815.09236065,E,074001.00,A,D*7E
$GPGLL,3315.93409135,S,11815.09228228,E,074002.00,A,D*71
$GPGLL,3315.93102136,S,11815.09221789,E,074003.00,A,D*7A
$GPGLL,3315.92789573,S,11815.09214666,E,074004.00,A,D*7A
$GPGLL,3315.92473664,S,11815.09208458,E,074005.00,A,D*7A
$GPGLL,3315.92151879,S,11815.09203371,E,074006.00,A,D*79
$GPGLL,3315.91825913,S,11815.09194194,E,074007.00,A,D*78
$GPGLL,3315.91511130,S,11815.09193712,E,074008.00,A,D*7B
$GPGLL,3315.91181108,S,11815.09185988,E,074009.00,A,D*76
$GPGLL,3315.90851801,S,11815.09180497,E,074010.00,A,D*7D
$GPGLL,3315.90525917,S,11815.09171208,E,074011.00,A,D*7A
$GPGLL,3315.90197599,S,11815.09165184,E,074012.00,A,D*7C
$GPGLL,3315.89871248,S,11815.09163972,E,074013.00,A,D*78
$GPGLL,3315.89554553,S,11815.09154180,E,074014.00,A,D*79
$GPGLL,3315.89242515,S,11815.09148094,E,074015.00,A,D*73
$GPGLL,3315.88935559,S,11815.09145223,E,074016.00,A,D*71
$GPGLL,3315.88635988,S,11815.09143031,E,074017.00,A,D*78
$GPGLL,3315.88345162,S,11815.09139774,E,074018.00,A,D*72
$GPGLL,3315.88062547,S,11815.09131683,E,074019.00,A,D*77
$GPGLL,3315.87783980,S,11815.09122054,E,074020.00,A,D*73
$GPGLL,3315.87503845,S,11815.09117554,E,074021.00,A,D*73
$GPGLL,3315.87222318,S,11815.09115214,E,074022.00,A,D*76
$GPGLL,3315.86939024,S,11815.09106702,E,074023.00,A,D*7B
$GPGLL,3315.86657443,S,11815.09096609,E,074024.00,A,D*7C
$GPGLL,3315.86376187,S,11815.09088693,E,074025.00,A,D*7A
$GPGLL,3315.86096089,S,11815.09083032,E,074026.00,A,D*7D
$GPGLL,3315.85819136,S,11815.09081567,E,074027.00,A,D*72
$GPGLL,3315.85539359,S,11815.09079747,E,074028.00,A,D*7E
$GPGLL,3315.85253988,S,11815.09074476,E,074029.00,A,D*7E
$GPGLL,3315.84964095,S,11815.09067561,E,074030.00,A,D*78
$GPGLL,3315.84669914,S,11815.09064778,E,074031.00,A,D*72
$GPGLL,3315.84364359,S,11815.09062306,E,074032.00,A,D*71
$GPGLL,3315.84058353,S,11815.09058787,E,074033.00,A,D*72
$GPGLL,3315.83743579,S,11815.09049280,E,074034.00,A,D*73
$GPGLL,3315.83414970,S,11815.09049917,E,074035.00,A,D*73
$GPGLL,3315.83069789,S,11815.09043943,E,074036.00,A,D*7D
$GPGLL,3315.82715467,S,11815.09041277,E,074037.00,A,D*7C
$GPGLL,3315.82360549,S,11815.09038330,E,074038.00,A,D*74
$GPGLL,3315.82015127,S,11815.09028589,E,074039.00,A,D*7D
$GPGLL,3315.81682409,S,11815.09021445,E,074040.00,A,D*79
$GPGLL,3315.81363318,S,11815.09015926,E,074041.00,A,D*7A
$GPGLL,3315.81055427,S,11815.09012004,E,074042.00,A,D*7A
$GPGLL,3315.80751441,S,11815.09002929,E,074043.00,A,D*7E
$GPGLL,3315.80457333,S,11815.08996132,E,074044.00,A,D*79
$GPGLL,3315.80169750,S,11815.08989330,E,074045.00,A,D*7F
$GPGLL,3315.79882301,S,11815.08987624,E,074046.00,A,D*78
$GPGLL,3315.79592038,S,11815.08982933,E,074047.00,A,D*70
$GPGLL,3315.79297361,S,11815.08976491,E,074048.00,A,D*7C
$GPGLL,3315.79003185,S,11815.08972452,E,074049.00,A,D*71
$GPGLL,3315.78719733,S,11815.08968160,E,074050.00,A,D*70
$GPGLL,3315.78447650,S,11815.08955560,E,074051.00,A,D*77
$GPGLL,3315.78190635,S,11815.08937307,E,074052.00,A,D*7B
$GPGLL,3315.77950596,S,11815.08930353,E,074053.00,A,D*7D
$GPGLL,3315.77739363,S,11815.08920220,E,074054.00,A,D*73
$GPGLL,3315.77574655,S,11815.08912473,E,074055.00,A,D*78
$GPGLL,3315.77444383,S,11815.08913383,E,074056.00,A,D*7E
$GPGLL,3315.77325665,S,11815.08940805,E,074057.00,A,D*71
$GPGLL,3315.77224491,S,11815.09020444,E,074058.00,A,D*70
$GPGLL,3315.77158764,S,11815.09128902,E,074059.00,A,D*76
$GPGLL,3315.77140004,S,11815.09246466,E,074100.00,A,D*77
$GPGLL,3315.77154365,S,11815.09353648,E,074101.00,A,D*7C
$GPGLL,3315.77198608,S,11815.09452103,E,074102.00,A,D*7F
$GPGLL,3315.77265291,S,11815.09522975,E,074103.00,A,D*74
$GPGLL,3315.77347882,S,11815.09560238,E,074104.00,A,D*7E
$GPGLL,3315.77447783,S,11815.09566084,E,074105.00,A,D*75
$GPGLL,3315.77567590,S,11815.09561988,E,074106.00,A,D*77
$GPGLL,3315.77708833,S,11815.09548921,E,074107.00,A,D*71
$GPGLL,3315.77866246,S,11815.09536141,E,074108.00,A,D*76
$GPGLL,3315.78008426,S,11815.09531274,E,074109.00,A,D*7A
$GPGLL,3315.78139434,S,11815.09534128,E,074110.00,A,D*7D
$GPGLL,3315.78287835,S,11815.09541760,E,074111.00,A,D*7F
$GPGLL,3315.78468924,S,11815.09551890,E,074112.00,A,D*7B
$GPGLL,3315.78677988,S,11815.09561493,E,074113.00,A,D*7C
$GPGLL,3315.78911520,S,11815.09565847,E,074114.00,A,D*7B
$GPGLL,3315.79159460,S,11815.09562098,E,074115.00,A,D*77
$GPGLL,3315.79410606,S,11815.09562575,E,074116.00,A,D*78
$GPGLL,3315.79665862,S,11815.09567908,E,074117.00,A,D*76
$GPGLL,3315.79934758,S,11815.09580471,E,074118.00,A,D*7E
$GPGLL,3315.80208506,S,11815.09590428,E,074119.00,A,D*79
$GPGLL,3315.80482542,S,11815.09597598,E,074120.00,A,D*7A
$GPGLL,3315.80757748,S,11815.09601908,E,074121.00,A,D*71
$GPGLL,3315.81029911,S,11815.09603868,E,074122.00,A,D*7A
$GPGLL,3315.81304190,S,11815.09608711,E,074123.00,A,D*7C
$GPGLL,3315.81577291,S,11815.09614504,E,074124.00,A,D*70
$GPGLL,3315.81851557,S,11815.09620721,E,074125.00,A,D*77
$GPGLL,3315.82123269,S,11815.09624853,E,074126.00,A,D*7F
$GPGLL,3315.82402749,S,11815.09634231,E,074127.00,A,D*70
$GPGLL,3315.82679073,S,11815.09642926,E,074128.00,A,D*73
$GPGLL,3315.82961290,S,11815.09648868,E,074129.00,A,D*7A
$GPGLL,3315.83251828,S,11815.09649275,E,074130.00,A,D*75
$GPGLL,3315.83546752,S,11815.09658170,E,074131.00,A,D*71
$GPGLL,3315.83849249,S,11815.09668873,E,074132.00,A,D*76
$GPGLL,3315.84154021,S,11815.09672929,E,074133.00,A,D*7C
$GPGLL,3315.84469654,S,11815.09672919,E,074134.00,A,D*77
$GPGLL,3315.84786548,S,11815.09671560,E,074135.00,A,D*7B
$GPGLL,3315.85100315,S,11815.09672337,E,074136.00,A,D*78
$GPGLL,3315.85415352,S,11815.09677178,E,074137.00,A,D*77
$GPGLL,3315.85727061,S,11815.09688009,E,074138.00,A,D*7E
$GPGLL,3315.86041191,S,11815.09694936,E,074139.00,A,D*7D
$GPGLL,3315.86353432,S,11815.09698930,E,074140.00,A,D*75
$GPGLL,3315.86667324,S,11815.09702901,E,074141.00,A,D*76
$GPGLL,3315.86984149,S,11815.09713174,E,074142.00,A,D*74
$GPGLL,3315.87302065,S,11815.09721813,E,074143.00,A,D*76
$GPGLL,3315.87621594,S,11815.09723661,E,074144.00,A,D*77
$GPGLL,3315.87936591,S,11815.09729430,E,074145.00,A,D*76
$GPGLL,3315.88254093,S,11815.09733948,E,074146.00,A,D*7B
$GPGLL,3315.88564043,S,11815.09737430,E,074147.00,A,D*75
$GPGLL,3315.88876065,S,11815.09740984,E,074148.00,A,D*72
$GPGLL,3315.89192331,S,11815.09743705,E,074149.00,A,D*77
$GPGLL,3315.89514067,S,11815.09752038,E,074150.00,A,D*7C
$GPGLL,3315.89840684,S,11815.09755338,E,074151.00,A,D*7E
$GPGLL,3315.90172248,S,11815.09757039,E,074152.00,A,D*79
$GPGLL,3315.90501357,S,11815.09762507,E,074153.00,A,D*79
$GPGLL,3315.90838602,S,11815.09772889,E,074154.00,A,D*76
$GPGLL,3315.91161158,S,11815.09777870,E,074155.00,A,D*78
$GPGLL,3315.91487334,S,11815.09782669,E,074156.00,A,D*72
$GPGLL,3315.91810610,S,11815.09787683,E,074157.00,A,D*73
$GPGLL,3315.92132627,S,11815.09799474,E,074158.00,A,D*77
$GPGLL,3315.92446792,S,11815.09807370,E,074159.00,A,D*74
$GPGLL,3315.92758653,S,11815.09813125,E,074200.00,A,D*7C
$GPGLL,3315.93061264,S,11815.09817896,E,074201.00,A,D*74
$GPGLL,3315.93358200,S,11815.09822836,E,074202.00,A,D*70
$GPGLL,3315.93653718,S,11815.09829641,E,074203.00,A,D*76
$GPGLL,3315.93950306,S,11815.09834114,E,074204.00,A,D*7D
$GPGLL,3315.94248370,S,11815.09836818,E,074205.00,A,D*7F
$GPGLL,3315.94544377,S,11815.09842883,E,074206.00,A,D*71
$GPGLL,3315.94837062,S,11815.09845168,E,074207.00,A,D*75
$GPGLL,3315.95127700,S,11815.09847219,E,074208.00,A,D*77
$GPGLL,3315.95413775,S,11815.09852018,E,074209.00,A,D*71
$GPGLL,3315.95702211,S,11815.09857935,E,074210.00,A,D*7E
$GPGLL,3315.95993492,S,11815.09861084,E,074211.00,A,D*72
$GPGLL,3315.96280972,S,11815.09868531,E,074212.00,A,D*7A
$GPGLL,3315.96562716,S,11815.09871793,E,074213.00,A,D*7E
$GPGLL,3315.96839195,S,11815.09877135,E,074214.00,A,D*7B
$GPGLL,3315.97110553,S,11815.09882581,E,074215.00,A,D*76
$GPGLL,3315.97382665,S,11815.09889016,E,074216.00,A,D*7A
$GPGLL,3315.97654223,S,11815.09896428,E,074217.00,A,D*74
$GPGLL,3315.97927212,S,11815.09910317,E,074218.00,A,D*76
$GPGLL,3315.98196167,S,11815.09919935,E,074219.00,A,D*78
$GPGLL,3315.98468723,S,11815.09918921,E,074220.00,A,D*74
$GPGLL,3315.98741105,S,11815.09920701,E,074221.00,A,D*78
$GPGLL,3315.99013803,S,11815.09919938,E,074222.00,A,D*7B
$GPGLL,3315.99287641,S,11815.09924011,E,074223.00,A,D*71
$GPGLL,3315.99557692,S,11815.09925702,E,074224.00,A,D*76
$GPGLL,3315.99827242,S,11815.09927687,E,074225.00,A,D*7A
$GPGLL,3316.00098239,S,11815.09931388,E,074226.00,A,D*77
$GPGLL,3316.00364394,S,11815.09937243,E,074227.00,A,D*70
$GPGLL,3316.00635466,S,11815.09943121,E,074228.00,A,D*70
$GPGLL,3316.00903698,S,11815.09947531,E,074229.00,A,D*79
$GPGLL,3316.01171020,S,11815.09948056,E,074230.00,A,D*73
$GPGLL,3316.01428878,S,11815.09954404,E,074231.00,A,D*70
$GPGLL,3316.01686383,S,11815.09957840,E,074232.00,A,D*75
$GPGLL,3316.01929483,S,11815.09956624,E,074233.00,A,D*74
$GPGLL,3316.02160850,S,11815.09950313,E,074234.00,A,D*70
$GPGLL,3316.02379867,S,11815.09946696,E,074235.00,A,D*70
$GPGLL,3316.02589140,S,11815.09947852,E,074236.00,A,D*71
$GPGLL,3316.02798320,S,11815.09953325,E,074237.00,A,D*78
$GPGLL,3316.03012425,S,11815.09961663,E,074238.00,A,D*77
$GPGLL,3316.03230794,S,11815.09974481,E,074239.00,A,D*77
$GPGLL,3316.03456883,S,11815.09984022,E,074240.00,A,D*74
$GPGLL,3316.03688420,S,11815.09990010,E,074241.00,A,D*75
$GPGLL,3316.03929513,S,11815.09998238,E,074242.00,A,D*73
$GPGLL,3316.04176973,S,11815.10003240,E,074243.00,A,D*71
$GPGLL,3316.04429966,S,11815.10011643,E,074244.00,A,D*79
$GPGLL,3316.04691597,S,11815.10019362,E,074245.00,A,D*75
$GPGLL,3316.04960332,S,11815.10023685,E,074246.00,A,D*7B
$GPGLL,3316.05233035,S,11815.10032538,E,074247.00,A,D*77
$GPGLL,3316.05510100,S,11815.10037291,E,074248.00,A,D*78
$GPGLL,3316.05787641,S,11815.10040940,E,074249.00,A,D*70
$GPGLL,3316.06061014,S,11815.10048252,E,074250.00,A,D*72
$GPGLL,3316.06316377,S,11815.10051026,E,074251.00,A,D*7F
$GPGLL,3316.06555651,S,11815.10057717,E,074252.00,A,D*7F
$GPGLL,3316.06775811,S,11815.10063567,E,074253.00,A,D*76
$GPGLL,3316.06981248,S,11815.10068267,E,074254.00,A,D*7E
$GPGLL,3316.07167986,S,11815.10081326,E,074255.00,A,D*74
$GPGLL,3316.07341336,S,11815.10082545,E,074256.00,A,D*70
$GPGLL,3316.07505821,S,11815.10072729,E,074257.00,A,D*7D
$GPGLL,3316.07653878,S,11815.10040390,E,074258.00,A,D*79
$GPGLL,3316.07795879,S,11815.10016746,E,074259.00,A,D*7E
$GPGLL,3316.07928823,S,11815.10020145,E,074300.00,A,D*74
$GPGLL,3316.08064771,S,11815.10075862,E,074301.00,A,D*7F
$GPGLL,3316.08174833,S,11815.10184666,E,074302.00,A,D*70
$GPGLL,3316.08224193,S,11815.10332823,E,074303.00,A,D*74
$GPGLL,3316.08220305,S,11815.10485637,E,074304.00,A,D*7A
$GPGLL,3316.08164835,S,11815.10620598,E,074305.00,A,D*7B
$GPGLL,3316.08070284,S,11815.10723252,E,074306.00,A,D*7F
$GPGLL,3316.07938432,S,11815.10794322,E,074307.00,A,D*75
$GPGLL,3316.07777393,S,11815.10835100,E,074308.00,A,D*75
$GPGLL,3316.07605998,S,11815.10848651,E,074309.00,A,D*78
$GPGLL,3316.07421974,S,11815.10847414,E,074310.00,A,D*7A
$GPGLL,3316.07227378,S,11815.10845176,E,074311.00,A,D*7E
$GPGLL,3316.07027782,S,11815.10837758,E,074312.00,A,D*71
$GPGLL,3316.06837675,S,11815.10833011,E,074313.00,A,D*7F
$GPGLL,3316.06644345,S,11815.10833879,E,074314.00,A,D*72
$GPGLL,3316.06435833,S,11815.10828671,E,074315.00,A,D*71
$GPGLL,3316.06226114,S,11815.10825721,E,074316.00,A,D*73
$GPGLL,3316.06004631,S,11815.10823329,E,074317.00,A,D*7A
$GPGLL,3316.05776603,S,11815.10818797,E,074318.00,A,D*7C
$GPGLL,3316.05544596,S,11815.10808020,E,074319.00,A,D*7B
$GPGLL,3316.05306488,S,11815.10809158,E,074320.00,A,D*70
$GPGLL,3316.05064259,S,11815.10801161,E,074321.00,A,D*7E
$GPGLL,3316.04823539,S,11815.10793506,E,074322.00,A,D*77
$GPGLL,3316.04574671,S,11815.10790454,E,074323.00,A,D*73
$GPGLL,3316.04309794,S,11815.10787510,E,074324.00,A,D*75
$GPGLL,3316.04038177,S,11815.10782308,E,074325.00,A,D*74
$GPGLL,3316.03761152,S,11815.10780360,E,074326.00,A,D*70
$GPGLL,3316.03476839,S,11815.10780378,E,074327.00,A,D*79
$GPGLL,3316.03189459,S,11815.10776594,E,074328.00,A,D*74
$GPGLL,3316.02898496,S,11815.10770089,E,074329.00,A,D*71
$GPGLL,3316.02605491,S,11815.10761799,E,074330.00,A,D*72
$GPGLL,3316.02330642,S,11815.10755675,E,074331.00,A,D*78
$GPGLL,3316.02072987,S,11815.10749232,E,074332.00,A,D*72
$GPGLL,3316.01835185,S,11815.10745780,E,074333.00,A,D*71
$GPGLL,3316.01609237,S,11815.10742212,E,074334.00,A,D*74
$GPGLL,3316.01387506,S,11815.10739828,E,074335.00,A,D*7C
$GPGLL,3316.01168149,S,11815.10736589,E,074336.00,A,D*7A
$GPGLL,3316.00941001,S,11815.10732811,E,074337.00,A,D*7C
$GPGLL,3316.00705813,S,11815.10729912,E,074338.00,A,D*7E
$GPGLL,3316.00460354,S,11815.10725267,E,074339.00,A,D*72
$GPGLL,3316.00211621,S,11815.10719431,E,074340.00,A,D*71
$GPGLL,3315.99941598,S,11815.10708399,E,074341.00,A,D*79
$GPGLL,3315.99659066,S,11815.10703044,E,074342.00,A,D*70
$GPGLL,3315.99367620,S,11815.10699212,E,074343.00,A,D*7E
$GPGLL,3315.99076747,S,11815.10696765,E,074344.00,A,D*70
$GPGLL,3315.98784456,S,11815.10693906,E,074345.00,A,D*77
$GPGLL,3315.98483728,S,11815.10688580,E,074346.00,A,D*72
$GPGLL,3315.98183191,S,11815.10684672,E,074347.00,A,D*70
$GPGLL,3315.97881521,S,11815.10683966,E,074348.00,A,D*79
$GPGLL,3315.97577792,S,11815.10674966,E,074349.00,A,D*7E
$GPGLL,3315.97274164,S,11815.10667445,E,074350.00,A,D*73
$GPGLL,3315.96966153,S,11815.10660148,E,074351.00,A,D*70
$GPGLL,3315.96651014,S,11815.10655339,E,074352.00,A,D*78
$GPGLL,3315.96327259,S,11815.10653902,E,074353.00,A,D*72
$GPGLL,3315.95998175,S,11815.10649928,E,074354.00,A,D*76
$GPGLL,3315.95666708,S,11815.10647069,E,074355.00,A,D*77
$GPGLL,3315.5335612,S,11815.10644158,E,074356.00,A,D*7D
$GPGLL,3315.95003211,S,11815.10645149,E,074357.00,A,D*7C
$GPGLL,3315.94673131,S,11815.10637426,E,074358.00,A,D*7B
$GPGLL,3315.94334849,S,11815.10628862,E,074359.00,A,D*78
$GPGL,3315.93993498,S,11815.10618672,E,074400.00,A,D*7F
$GPGLL,3315.93652459,S,11815.10609850,E,074401.00,A,D*7F
$GPGLL,3315.93317243,S,11815.10603958,E,074402.00,A,D*76
$GPGLL,3315.92980929,S,11815.10596910,E,074403.00,A,D*76
$GPGLL,315.92651824,S,11815.10588212,E,074404.00,A,D*78
$GPGLL,3315.92334362,S,11815.10580952,E,074405.00,A,D*71
$GPGLL,3315.92028992,S,11815.10576021,E,074406.00,A,D*7D
$GPGL,3315.91733019,S,11815.10570123,E,074407.00,A,D*7D
$GPGL,3315.91439983,S,11815.10565860,E,074408.00,A,D*7B
$GPGLL,3315.91143762,S,11815.10560663,E,074409.00,A,D*7B
$GPGLL,3315.90836999,S,11815.10558771,E,074410.00,A,D*7A
$GPGLL,3315.90524142,S,11815.10552968,E,074411.00,A,D*77
$GPGLL,3315.90210693,S,11815.10546306,E,074412.00,A,D*78
$GPGLL,3315.89900845,S,11815.10539597,E,074413.00,A,D*78
$GPGLL,3315.89586706,S,11815.10537393,E,074414.00,A,D*79
$GPGLL,3315.89271069,S,11815.10530698,E,074415.00,A,D*70
$PGLL,3315.88961217,S,11815.10518104,E,074416.00,A,D*7B
$GGLL,3315.88656555,S,11815.10510554,E,074417.00,A,D*79
$GPGLL,3315.88355332,S,11815.10507869,E,074418.00,A,D*72
$GPGLL,3315.88063400,S,11815.10500861,E,074419.00,A,D*7C
$GPGLL,3315.87779728,S,11815.10493950,E,074420.00,A,D*74
$GPGL,3315.87506245,S,11815.10488963,E,074421.00,A,D*7B
$GPGLL,3315.87238654,S,11815.10484814,E,074422.00,A,D*7B
$GPGLL,3315.86968355,S,11815.10483830,E,074423.00,A,D*70
$GPGLL,3315.86695571,S,11815.10482354,E,074424.00,A,D*72
$GPGLL,3315.86422888,S,11815.10475526,E,074425.00,A,D*7D
$GPGLL,3315.86145820,S,11815.10470437,E,074426.00,A,D*7C
$GPGLL,3315.85868601,S,11815.10467287,E,074427.00,A,D*7E
$GPGLL,3315.85586364,S,11815.10464186,E,074428.00,A,D*7B
$GPGLL,3315.85304045,S,11815.10458277,E,074429.00,A,D*74
$GPGLL,3315.85017586,S,11815.10450145,E,074430.00,A,D*7D
$PGLL,3315.84728392,S,11815.10443588,E,074431.00,A,D*72
$GGLL,3315.84435793,S,11815.10436592,E,074432.00,A,D*72
$GPGLL,3315.84131249,S,11815.10433063,E,074433.00,A,D*7E
$GPGLL,3315.83815014,S,11815.10422947,E,074434.00,A,D*74
$GPGLL,3315.83489676,S,11815.10416868,E,074435.00,A,D*75
$GPGLL,3315.83158963,S,11815.10409798,E,074436.00,A,D*7A
$GPGLL,3315.82832225,S,11815.10402957,E,074437.00,A,D*70
$GPGLL,3315.82501915,S,11815.10398998,E,074438.00,A,D*7D
$GPGLL,3315.82179016,S,11815.10390989,E,074439.00,A,D*75
$GPGLL,3315.81861244,S,11815.10388286,E,074440.00,A,D*70
$GGLL,3315.81552147,S,11815.10388120,E,074441.00,A,D*73
$GPGLL,3315.81255667,S,11815.10381007,E,074442.00,A,D*78
$GPGLL,3315.80972086,S,11815.10371822,E,074443.00,A,D*7F
$GPGLL,331.80697266,S,11815.10371757,E,074444.00,A,D*7D
$GPGLL,3315.80429830,S,11815.10365233,E,074445.00,A,D*70
$GPGLL,3315.80163611,S,11815.10363348,E,074446.00,A,D*7E
$GPGLL,331579896546,S,11815.10363849,E,074447.00,A,D*71
$GPGLL,3315.79633101,S,11815.10363010,E,074448.00,A,D*7C
$GPGLL,3315.79375898,S,11815.10353352,E,074449.00,A,D*75
$GPGLL,3315.79121685,S,11815.10340670,E,074450.00,A,D*7B
$GPGL,3315.78872873,S,11815.10330706,E,074451.00,A,D*74
$GPGLL,3315.78626955,S,11815.10327360,E,074452.00,A,D*7F
$GPGLL,331.78388053,S,11815.10320436,E,074453.00,A,D*73
$GPGLL,331.78164510,S,11815.10312326,E,074454.00,A,D*71
$GPGLL,3315.77959765,S,11815.10305203,E,074455.00,A,D*79
$GPGLL,3315.77784783,S,11815.10295872,E,074456.00,A,D*78
$GPGLL,3315.77649429,S,11815.10281773,E,074457.00,A,D*71
$GPGLL,3315.77528802,S,11815.10265785,E,074458.00,A,D*7C
$GPGLL,315.77416862,S,11815.10259370,E,074459.00,A,D*76
$GPGLL,3315.77308335,S,11815.10283120,E,074500.00,A,D*7A
$GPGLL,3315.77213303,S,11815.10351193,E,074501.00,A,D*73
$GPGLL,3315.77146509,S,11815.10461342,E,074502.00,A,D*75
$GPGLL,3315.77125351,S,11815.10600848,E,074503.00,A,D*7E
$GPGLL,3315.77154082,S,11815.10725115,E,074504.00,A,D*75
$GPGLL,3315.77209720,S,11815.10817887,E,074505.00,A,D*7C
$GPGLL,3315.77281405,S,11815.10876244,E,074506.00,A,D*79
$GPGLL,3315.77372133,S,11815.10901545,E,074507.00,A,D*72
$GPGLL,3315.77497190,S,11815.10901240,E,074508.00,A,D*7A
$GPGL,3315.77661850,S,11815.10881786,E,074509.00,A,D*73
$GPGLL,331.77858752,S,11815.10865083,E,074510.00,A,D*7A
$GPGL,3315.78078696,S,11815.10860007,E,074511.00,A,D*7E
$GPGLL,3315.78322410,S,11815.10861303,E,074512.00,A,D*7B
$GPGLL,3315.78589653,S,11815.10865282,E,074513.00,A,D*74
$GPGLL,3315.78882729,S,11815.10873541,E,074514.00,A,D*76
$GPGLL,315.79186092,S,11815.10883597,E,074515.00,A,D*78
$GPGLL,3315.79487964,S,11815.10892613,E,074516.00,A,D*70
$GPGLL,3315.79783649,S,11815.10898128,E,074517.00,A,D*73
$GPGLL,3315.80084095,S,11815.10901626,E,074518.00,A,D*75
$GPGLL,3315.80382090,S,11815.10906938,E,074519.00,A,D*73
$GGLL,3315.80678384,S,11815.10918420,E,074520.00,A,D*74
$GPGLL,3315.80973040,S,11815.10930028,E,074521.00,A,D*7C
$GPGLL,3315.81270688,S,11815.10935313,E,074522.00,A,D*7A
$GPGL,3315.81569341,S,11815.10938863,E,074523.00,A,D*75
$GPGLL,3315.81863133,S,11815.10943628,E,074524.00,A,D*7F
$GPGLL,3315.82151230,S,11815.10948146,E,074525.00,A,D*71
$GPGLL,3315.82438284,S,11815.10954638,E,074526.00,A,D*74
$GPGLL,3315.82722209,S,11815.10956953,E,074527.00,A,D*78
$GPGLL,3315.83011719,S,11815.10960244,E,074528.00,A,D*7D
$GPGLL,3315.83296904,S,11815.10967836,E,074529.00,A,D*7B
$GPGLL,3315.83589433,S,11815.10973115,E,074530.00,A,D*7E
$GPGLL,3315.83885202,S,11815.10979665,E,074531.00,A,D*70
$GPGLL,3315.84183484,S,11815.10986033,E,074532.00,A,D*76
$GPGL,3315.84478149,S,11815.10996599,E,074533.00,A,D*76
$GPGLL,3315.84779720,S,11815.11002713,E,074534.00,A,D*7F
$GPGLL,331585078163,S,11815.11010462,E,074535.00,A,D*7E
$GPGLL,3315.85375669,S,11815.11013402,E,074536.00,A,D*7B
$GPGLL,3315.85673807,S,11815.11015024,E,074537.00,A,D*79
$GPGLL,3315.85975015,S,11815.11014584,E,074538.00,A,D*7A
$GPGLL,3315.86277052,S,11815.11015118,E,074539.00,A,D*72
$GPGLL,3315.86583306,S,11815.11018217,E,074540.00,A,D*73
$GPGLL,3315.86887205,S,11815.11023697,E,074541.00,A,D*7D
$GPGLL,3315.87181914,S,11815.11028258,E,074542.00,A,D*77
$GPGLL,3315.87458347,S,11815.11040352,E,074543.00,A,D*7E
$GPGLL,3315.87722517,S,11815.11066613,E,074544.00,A,D*70
$GPGLL,331.87983689,S,11815.11073215,E,074545.00,A,D*76
$GPGLL,3315.88244181,S,11815.11072830,E,074546.00,A,D*79
$GPGL,3315.88507886,S,11815.11074194,E,074547.00,A,D*77
$GPGLL,3315.88780279,S,11815.11074813,E,074548.00,A,D*79
$GPGLL,3315.89065923,S,11815.11082405,E,074549.00,A,D*73
$GPGLL,3315.89367544,S,11815.11091818,E,074550.00,A,D*75
$GPGLL3315.89684826,S,11815.11106398,E,074551.00,A,D*79
$GPGLL,315.90014357,S,11815.11118058,E,074552.00,A,D*70
$GPGL,3315.90342931,S,11815.11129673,E,074553.00,A,D*76
$GPGLL,3315.90672635,S,11815.11135110,E,074554.00,A,D*73
$GPGLL3315.91000343,S,11815.11142714,E,074555.00,A,D*76
$GPGL,3315.91339966,S,11815.11145780,E,074556.00,A,D*7B
$GPGL,3315.91683123,S,11815.11146986,E,074557.00,A,D*7C
$GPGLL,3315.92029426,S,11815.11150168,E,074558.00,A,D*79
$GPGL,3315.92378638,S,11815.11149260,E,074559.00,A,D*71
$GPGLL,3315.92729180,S,11815.11156119,E,074600.00,A,D*79
$GPGLL,3315.93084075,S,11815.11162498,E,074601.00,A,D*79
$GPLL,3315.93438207,S,11815.11169906,E,074602.00,A,D*7F
$GPGLL3315.93793196,S,11815.11175084,E,074603.00,A,D*79
$GPGL,3315.94146197,S,11815.11179859,E,074604.00,A,D*72
$GPGLL,3315.94504944,S,11815.11187250,E,074605.00,A,D*75
$GPLL,3315.94865885,S,11815.11196116,E,074606.00,A,D*71
$GPGLL,3315.95227300,S,11815.11203710,E,074607.00,A,D*74
$GPGLL,3315.95584215,S,11815.11212399,E,074608.00,A,D*75
$GPGLL,3315.95943353,S,11815.11221946,E,074609.00,A,D*78
$GPGLL,3315.96298614,S,11815.11226219,E,074610.00,A,D*7E
$GPGLL,3315.96650259,S,11815.11231967,E,074611.00,A,D*76
$GPGLL,3315.97006844,S,11815.11238130,E,074612.00,A,D*74
$GPLL,3315.97361534,S,11815.11241053,E,074613.00,A,D*77
$GPGLL,3315.97713743,S,11815.11242340,E,074614.00,A,D*71
$GPGLL,3315.98065577,S,11815.11246230,E,074615.00,A,D*7E
$GGLL,3315.98413254,S,11815.11257350,E,074616.00,A,D*79
$GPGLL,3315.98758575,S,11815.11266577,E,074617.00,A,D*71
$GPGLL,3315.99103933,S,11815.11273428,E,074618.00,A,D*76
$GPGLL,3315.99443885,S,11815.11280090,E,074619.00,A,D*71
$GPGLL,3315.99785922,S,11815.11286064,E,074620.00,A,D*73
$GPGLL,331600121706,S,11815.11291870,E,074621.00,A,D*7A
$GPGLL,3316.00455817,S,11815.11298515,E,074622.00,A,D*77
$GPGLL,3316.00784862,S,11815.11302787,E,074623.00,A,D*70
$GPGLL,3316.1110886,S,11815.11306887,E,074624.00,A,D*7C
$GPGLL,336.01431268,S,11815.11316409,E,074625.00,A,D*7A
$GPGLL,3316.01746714,S,11815.11323627,E,074626.00,A,D*7C
$GPGLL,3316.02057140,S,11815.11332418,E,074627.00,A,D*70
$GPGLL,336.02355169,S,11815.11334141,E,074628.00,A,D*7A
$GPGLL,3316.02652952,S,11815.11331740,E,074629.00,A,D*7B
$GPGLL,3316.02944801,S,11815.11340920,E,074630.00,A,D*72
$GPGLL,331.03236549,S,11815.11346890,E,074631.00,A,D*71
$GPGLL,336.03524983,S,11815.11350491,E,074632.00,A,D*76
$GPGLL,3316.03816944,S,11815.11353309,E,074633.00,A,D*75
$GPGLL,3316.04111007,S,11815.11355077,E,074634.00,A,D*79
$GPGLL,316.04407223,S,11815.11354140,E,074635.00,A,D*7A
$GPGLL,3316.04697563,S,11815.11351667,E,074636.00,A,D*76
$GPGLL,3316.04981715,S,11815.11340743,E,074637.00,A,D*7B
$GPGLL3316.05257911,S,11815.11343594,E,074638.00,A,D*74
$GPGLL,336.05522322,S,11815.11345136,E,074639.00,A,D*70
$GPGLL,316.05786744,S,11815.11356031,E,074640.00,A,D*72
$GPGLL,3316.06049805,S,11815.11363770,E,074641.00,A,D*7A
$GPGLL,316.06311536,S,11815.11374864,E,074642.00,A,D*76
$GPGLL,3316.06559556,S,11815.11382623,E,074643.00,A,D*7F
$GPGLL,3316.06805445,S,11815.11389155,E,074644.00,A,D*72
$GPGLL3316.07040374,S,11815.11380285,E,074645.00,A,D*79
$GPGLL3316.07269113,S,11815.11360583,E,074646.00,A,D*7F
$GPGLL,3316.07482296,S,11815.11329354,E,074647.00,A,D*72
$GPGL,3316.07671807,S,11815.11285482,E,074648.00,A,D*7A
$GPGLL,3316.07843560,S,11815.11264176,E,074649.00,A,D*79
$GPGLL,3316.08006772,S,11815.11292877,E,074650.00,A,D*77
$PGLL,3316.08147981,S,11815.11383221,E,074651.00,A,D*78
$PGLL,3316.08248247,S,11815.11537616,E,074652.00,A,D*7F
$PGLL,3316.08289538,S,11815.11733412,E,074653.00,A,D*7C
$GPGLL,3316.08253747,S,11815.11928092,E,074654.00,A,D*7E
$GPGLL,3316.08155437,S,11815.12089427,E,074655.00,A,D*75
$GPGLL,3316.07999808,S,11815.12169772,E,074656.00,A,D*7D
$GPGLL,3316.07826490,S,11815.12156872,E,074657.00,A,D*77
$GPGLL,3316.07655627,S,11815.12110507,E,074658.00,A,D*71
$GPGLL,3316.07486432,S,11815.12077269,E,074659.00,A,D*75
$GPGLL,3316.07310765,S,11815.12057701,E,074700.00,A,D*78
$GPGLL,3316.07116594,S,11815.12046412,E,074701.00,A,D*70
$GPGLL,3316.06908572,S,11815.12043007,E,074702.00,A,D*78
$PGLL,3316.06675525,S,11815.12044377,E,074703.00,A,D*7D
$GPGLL,3316.06427894,S,11815.12044507,E,074704.00,A,D*79
$GPGLL,3316.06163798,S,11815.12042330,E,074705.00,A,D*7A
$GPGLL,3316.05889482,S,11815.12035804,E,074706.00,A,D*73
$GPGLL,3316.05599729,S,11815.12027979,E,074707.00,A,D*74
$GPGLL,3316.05309951,S,11815.12023340,E,074708.00,A,D*71
$GPGLL,3316.05017599,S,11815.12020121,E,074709.00,A,D*72
$GPGLL,3316.04725314,S,11815.12017258,E,074710.00,A,D*77
$GPGLL,3316.04431711,S,11815.12016524,E,074711.00,A,D*7C
$GPGLL,3316.4136425,S,11815.12010492,E,074712.00,A,D*73
$GPGLL,3316.0839292,S,11815.11997361,E,074713.00,A,D*77
$GPGLL,3316.03536742,S,11815.11988593,E,074714.00,A,D*7F
$GPGLL,3316.03236609,S,11815.11986233,E,074715.00,A,D*74
$GPGLL,3316.02935302,S,11815.11980879,E,074716.00,A,D*72
$GPGLL,3316.02638433,S,11815.11973784,E,07477.00,A,D*75
$GPGLL,3316.02330523,S,11815.11969218,E,074718.00,A,*7C
$GPGLL,3316.02021236,S,11815.11964711,E,074719.00,A,D*7C
$GPGLL,3316.01700447,S,11815.11959954,E,074720.00,A,D*70
$GPGLL,3316.01377878,S,11815.11953158,E,074721.00,A,D*7
$GPGLL,3316.01051193,S,11815.11950602,E,074722.00,A,D*8
$GPGLL,3316.00718049,S,11815.11944360,E,074723.00,A,D*70
$GPGLL,3316.00377250,S,11815.11939780,E,074724.00,A,D*70
$GPGLL,3316.00031658,S,11815.11933938,E,074725.00,A,D*7B
$GPGLL,3315.99678590,S,11815.11928693,E,074726.00,A,D*73
$GPGLL,3315.99316663,S,11815.11922304,E,074727.00,A,D*71
$GPGLL,3315.98970216,S,11815.11911546,E,074728.00,A,D*73
$GPGLL,3315.98629021,S,11815.11901982,E,074729.00,A,D*72
$GPGLL,3315.98289846,S,11815.11889170,E,074730.00,A,D*79
$GPGLL,3315.97952004,S,11815.11879790,E,07731.00,A,D*73
$GPGLL,3315.97619722,S,11815.11873740,E,074732.00,A,D*74
$GPGLL,3315.97295823,S,11815.11869036,E,074733.00,A,D*76
$GPGLL,3315.96977635,S,11815.11867554,E,074734.00,A,D*71$GPGLL,3315.96668812,S,11815.11866773,E,074735.00,,D*7C
$GPGLL,3315.96372418,S,11815.11856061,E,074736.00,A,D*70
$GPGLL,3315.96080250,S,11815.11847108,E,074737.00,A,D*7B
$GPGLL,3315.95786157,S,11815.11839550,E,074738.00,A,D*72
$GPGLL,3315.95493802,S,11815.11829889,E,074739.00A,D*75
$GPGLL,3315.95192738,S,11815.11822893,E,07440.00,A,D*79
$GPGLL,3315.94891057,S,11815.11810209,E,074741.00,A,D*75
$GPGLL,3315.94582550,S,11815.11800794,E,074742.00,A,D*7B
$GPGLL,3315.94272239,S,11815.11797270,E,074743.00,,D*74
$GPGLL,3315.93959381,S,11815.11794198,E,074744.0,A,D*72
$GPGLL,3315.93641387,S,11815.11792746,E,074745.00,A,D*70
$GPGLL,3315.93316928,S,11815.11792724,E,074746.00,A,D*7F
$GPGLL,3315.92990748,S,11815.11792483,E,074747.0,A,D*7D
$GPGLL,3315.92659507,S,11815.11786736,E,074748.00,A,D*79
$GPGLL,3315.92324297,S,11815.11779813,E,074749.00,,D*71
$GPGLL,3315.91989779,S,11815.11772986,E,074750.00,A,D*74
$GPGLL,3315.91651591,S,11815.11765544,E,07475.00,A,D*7F
$GPGLL,3315.91308605,S,11815.11755478,E,074752.00,A,D*76
$GPGLL,3315.90966323,S,11815.11748939,E,074753.00,A,D*71
$GPGLL,3315.90620821,S,11815.11737211,E,07474.00,A,D*7B
$GPGLL,3315.90273283,S,11815.11734434,E,074755.00,,D*78
$GPGLL,3315.89919268,S,11815.11732609,E,074756.00,A,D*7B
$GPGLL,3315.89568029,S,11815.11727649,E,07475.00,A,D*77
$GPGLL,3315.89218877,S,11815.11727451,E,074758.00,A,D*70
$GPGLL,3315.88884110,S,11815.11721728,E,074759.00,A,D*7C
$GPGLL,3315.88551459,S,11815.11715413,E,074800.00,A,D*7E
$GPGLL,3315.88230003,S,11815.11709039,E,074801.00,A,D*75
$GPGLL,3315.87911461,S,11815.11702467,E,074802.00,A,D*75
$GPGLL,3315.87600775,S,11815.11696939,E,074803.00,A,*77
$GPGLL,3315.87286994,S,11815.11688194,E,074804.00,A,D*7B
$GPGLL,3315.86977152,S,11815.11683861,E,074805.00,A,D*74
$GPGLL,3315.86669003,S,11815.11679945,E,074806.00,A,D*0
$GPGLL,3315.86362112,S,11815.11673174,E,074807.00,A,D*7E
$GPGLL,3315.86050080,S,11815.11675200,E,074808.00,A,D*7F
$GPGLL,3315.85732859,S,11815.11666551,E,074809.00,A,D*73
$GPGLL,3315.85412726,S,11815.11660874,E,074810.00,A,*71
$GPGLL,3315.85091515,S,11815.11660939,E,074811.00,A,D*75
$GPGLL,3315.84772680,S,11815.11655653,E,074812.00,AD*77
$GPGLL,3315.84455128,S,11815.11650207,E,074813.00,A,D*5
$GPGLL,3315.84143515,S,11815.11642435,E,074814.00,A,D*E
$GPGLL,3315.83822150,S,11815.11630975,E,074815.00,A,D*7F
$GPGLL,3315.83496399,S,11815.11617753,E,074816.00,A,D*77
$GPGLL,3315.83169334,S,11815.11606914,E,074817.00,A,D*79
$GPGLL,3315.82835369,S,11815.11601684,E,074818.00,A,D*7E
$GPGLL,3315.82497825,S,11815.11589404,E,074819.00,A,D*1
$GPGLL,3315.82154924,S,11815.11577867,E,074820.00,A,D*79
$GPGLL,3315.81810762,S,11815.11575901,E,074821.00,A,D*7D
$GPGLL,3315.81459774,S,11815.11568364,E,074822.00,A,*7D
$GPGLL,3315.81107079,S,11815.11566315,E,074823.00,A,D*70
$GPGLL,3315.80762450,S,11815.11565370,E,074824.00,,D*7C
$GPGLL,3315.80427405,S,11815.11560018,E,074825.00,A,D*7
$GPGLL,3315.80097705,S,11815.11551174,E,074826.00,A,*71
$GPGLL,3315.79779443,S,11815.11542053,E,074827.00,A,D*76
$GPGLL,3315.79467594,S,11815.11538623,E,074828.00,A,D*72
$GPGLL,3315.79164710,S,11815.11530918,E,074829.00A,D*74
$GPGLL,3315.78875421,S,11815.11524575,E,074830.00,A,D*77
$GPGLL,3315.78597056,S,11815.11516814,E,074831.00,A,D*78
$GPGLL,3315.78335389,S,11815.11510314,E,074832.00,A,D*79
$GPGLL,3315.78092047,S,11815.11502564,E,074833.00,A,D*75
$GPGLL,3315.77870030,S,11815.11487782,E,074834.00,A,D*7F
$GPGLL,3315.77685625,S,11815.11469686,E,074835.00,A,D*7D
$GPGLL,3315.77542277,S,11815.11448809,E,074836.00A,D*7F
$GPGLL,3315.77418933,S,11815.11435801,E,074837.00,A,D*79
$GPGLL,3315.77301769,S,11815.11457525,E,074838.00,A,D*77
$GPGLL,3315.77194121,S,11815.11517197,E,074839.00,A,D*7A
$GPGLL,3315.77109352,S,11815.11624784,E,074840.00,A,D*71
$GPGLL,3315.77074848,S,11815.11770887,E,074841.00,A,D*77
$GPGLL,3315.77093240,S,11815.11924072,E,07484200,A,D*72
$GPGLL,3315.77185447,S,11815.12061095,E,074843.00,A,D*76
$GPGLL,3315.77337150,S,11815.12155339,E,074844.00,A,D*7A
$GPGLL,3315.77527466,S,11815.12196591,E,074845.0,A,D*77
$GPGLL,3315.77735953,S,11815.12197392,E,074846.00,A,D*7A
$GPGLL,3315.77955303,S,11815.12193681,E,07484.00,A,D*7F
$GPGLL,3315.78186553,S,11815.12199127,E,074848.00,A,D*7B
$GPGLL,3315.78431835,S,11815.12206216,E,07449.00,A,D*7A
$GPGLL,3315.78695589,S,11815.12216836,E,074850.00,A,D*7D
$GPGLL,3315.78978823,S,11815.12218380,E,074851.00,A,D*75
$GPGLL,3315.79249972,S,11815.12222697,E,074852.00,A,D*71$GPGLL,3315.79508386,S,11815.12232444,E,074853.00,A,D*7E
$GPGLL,3315.79752065,S,11815.12236859,E,074854.00,A,D*7E
$GPGLL,3315.80001070,S,11815.12237063,E,074855.00,A,D*7C
$GPGLL,3315.80263937,S,11815.12238690,E,074856.00,A,D*76
$GPGLL,3315.80536294,S,11815.12246266,E,074857.00,A,D*76
$GPGLL,3315.80811078,S,11815.12252812,E,074858.00,A,D*7D
$GPGLL,3315.81086096,S,11815.12255661,E,074859.00,A,D*76
$GPGLL,3315.81358284,S,11815.12263133,E,074900.00,A,D*7F
$GPGLL,3315.81623376,S,11815.12268324,E,074901.00,A,D*74
$GPGLL,3315.81885595,S,11815.12270739,E,074902.00,A,D*7F
$GPGLL,3315.82150136,S,11815.12272814,E,074903.00,A,D*73
$GPGLL,3315.82415625,S,11815.12273530,E,074904.00,A,D*7F
$GPGLL,3315.82695805,S,11815.12274789,E,074905.00,A,D*7F
$GPGLL,3315.82986351,S,11815.12278523,E,074906.00,A,D*75
$GPGLL,3315.83282517,S,11815.12284377,E,074907.00,A,D*7A
$GPGLL,3315.83579315,S,11815.12289745,E,074908.00,A,D*7A
$GPGLL,3315.83874753,S,11815.12293783,E,074909.00,A,D*7C
$GPGLL,3315.84174586,S,11815.12297261,E,074910.00,A,D*7D
$GPGLL,3315.84470060,S,11815.12299935,E,074911.00,A,D*74
$GPGLL,3315.84767328,S,11815.12305227,E,074912.00,A,D*71
$GPGLL,3315.85062644,S,11815.12312059,E,074913.00,A,D*71
$GPGLL,3315.85357378,S,11815.12324405,E,074914.00,A,D*71
$GPGLL,3315.85660102,S,11815.12332360,E,074915.00,A,D*7D
$GPGLL,3315.85974668,S,11815.12336051,E,074916.00,A,D*7A
$GPGLL,3315.86290360,S,11815.12342698,E,074917.00,A,D*74
$GPGLL,3315.86596333,S,11815.12347132,E,074918.00,A,D*7E
$GPGLL,3315.86900005,S,11815.12346960,E,074919.00,A,D*74
$GPGLL,3315.87196630,S,11815.12349305,E,074920.00,A,D*7E
$GPGLL,3315.87491987,S,11815.12349270,E,074921.00,A,D*7D
$GPGLL,3315.87791363,S,11815.12349994,E,074922.00,A,D*7C
$GPGLL,3315.88093599,S,11815.12354445,E,074923.00,A,D*79
$GPGLL,3315.88400960,S,11815.12357815,E,074924.00,A,D*70
$GPGLL,3315.88721946,S,11815.12364166,E,074925.00,A,D*78
$GPGLL,3315.89047918,S,11815.12369809,E,074926.00,A,D*7B
$GPGLL,3315.89388292,S,11815.12373148,E,074927.00,A,D*74
$GPGLL,3315.89736893,S,11815.12377426,E,074928.00,A,D*78
$GPGLL,3315.90090125,S,11815.12386518,E,074929.00,A,D*7C
$GPGLL,3315.90445554,S,11815.12392052,E,074930.00,A,D*74
$GPGLL,3315.90802183,S,11815.12400436,E,074931.00,A,D*7E
$GPGLL,3315.91164397,S,11815.12404268,E,074932.00,A,D*7B
$GPGLL,3315.91525251,S,11815.12408806,E,074933.00,A,D*7E
$GPGLL,3315.91888665,S,11815.12415074,E,074934.00,A,D*71
$GPGLL,3315.92249098,S,11815.12421743,E,074935.00,A,D*74
$GPGLL,3315.92599770,S,11815.12424530,E,074936.00,A,D*7F
$GPGLL,3315.92937671,S,11815.12426961,E,074937.00,A,D*7C
$GPGLL,3315.93270856,S,11815.12431742,E,074938.00,A,D*78
$GPGLL,3315.93599545,S,11815.12437162,E,074939.00,A,D*74
$GPGLL,3315.93925672,S,11815.12444399,E,074940.00,A,D*74
$GPGLL,3315.94255759,S,11815.12449499,E,074941.00,A,D*7C
$GPGLL,3315.94573528,S,11815.12451062,E,074942.00,A,D*71
$GPGLL,3315.94882498,S,11815.12451609,E,074943.00,A,D*72
$GPGLL,3315.95185254,S,11815.12455526,E,074944.00,A,D*76
$GPGLL,3315.95485070,S,11815.12464972,E,074945.00,A,D*79
$GPGLL,3315.95781468,S,11815.12474147,E,074946.00,A,D*7F
$GPGLL,3315.96080243,S,11815.12479384,E,074947.00,A,D*74
$GPGLL,3315.96382356,S,11815.12485882,E,074948.00,A,D*71
$GPGLL,3315.96689402,S,11815.12490349,E,074949.00,A,D*70
$GPGLL,3315.97003359,S,11815.12493008,E,074950.00,A,D*71
$GPGLL,3315.97318051,S,11815.12504116,E,074951.00,A,D*73
$GPGLL,3315.97631929,S,11815.12514947,E,074952.00,A,D*75
$GPGLL,3315.97945137,S,11815.12528238,E,074953.00,A,D*73
$GPGLL,3315.98254257,S,11815.12535105,E,074954.00,A,D*74
$GPGLL,3315.98556210,S,11815.12536473,E,074955.00,A,D*74
$GPGLL,3315.98856859,S,11815.12537972,E,074956.00,A,D*70
$GPGLL,3315.99155964,S,11815.12542968,E,074957.00,A,D*7C
$GPGLL,3315.99448932,S,11815.12548130,E,074958.00,A,D*76
$GPGLL,3315.99742699,S,11815.12558751,E,074959.00,A,D*70
$GPGLL,3316.00037797,S,11815.12567647,E,075000.00,A,D*77
$GPGLL,3316.00332634,S,11815.12573730,E,075001.00,A,D*7C
$GPGLL,3316.00631690,S,11815.12580461,E,075002.00,A,D*7C
$GPGLL,3316.00933776,S,11815.12582198,E,075003.00,A,D*78
$GPGLL,3316.01233727,S,11815.12585422,E,075004.00,A,D*72
$GPGLL,3316.01526438,S,11815.12590035,E,075005.00,A,D*7B
$GPGLL,3316.01811810,S,11815.12594701,E,075006.00,A,D*73
$GPGLL,3316.02096441,S,11815.12598631,E,075007.00,A,D*70
$GPGLL,3316.02379079,S,11815.12604465,E,075008.00,A,D*77
$GPGLL,3316.02655856,S,11815.12614989,E,075009.00,A,D*76
$GPGLL,3316.02929923,S,11815.12619489,E,075010.00,A,D*79
$GPGLL,3316.03200816,S,11815.12621081,E,075011.00,A,D*79
$GPGLL,3316.03471026,S,11815.12621107,E,075012.00,A,D*7E
$GPGLL,3316.03737452,S,11815.12622418,E,075013.00,A,D*71
$GPGLL,3316.04003797,S,11815.12627674,E,075014.00,A,D*76
$GPGLL,3316.04264857,S,11815.12630104,E,075015.00,A,D*71
$GPGLL,3316.04525671,S,11815.12633643,E,075016.00,A,D*7D
$GPGLL,3316.04786531,S,11815.12637152,E,075017.00,A,D*73
$GPGLL,3316.05049050,S,11815.12635871,E,075018.00,A,D*71
$GPGLL,3316.05307550,S,11815.12639463,E,075019.00,A,D*7F
$GPGLL,3316.05565521,S,11815.12642407,E,075020.00,A,D*7F
$GPGLL,3316.05819154,S,11815.12647678,E,075021.00,A,D*71
$GPGLL,3316.06071653,S,11815.12655225,E,075022.00,A,D*78
$GPGLL,3316.06321049,S,11815.12662403,E,075023.00,A,D*74
$GPGLL,3316.06570940,S,11815.12664877,E,075024.00,A,D*78
$GPGLL,3316.06819513,S,11815.12655994,E,075025.00,A,D*7F
$GPGLL,3316.07058798,S,11815.12635510,E,075026.00,A,D*77
$GPGLL,3316.07289200,S,11815.12612075,E,075027.00,A,D*7F
$GPGLL,3316.07505150,S,11815.12585788,E,075028.00,A,D*7D
$GPGLL,3316.07706018,S,11815.12554214,E,075029.00,A,D*7C
$GPGLL,3316.07880679,S,11815.12531152,E,075030.00,A,D*76
$GPGLL,3316.08034869,S,11815.12590942,E,075031.00,A,D*72
$GPGLL,3316.08150975,S,11815.12720531,E,075032.00,A,D*7F
$GPGLL,3316.08194164,S,11815.12921912,E,075033.00,A,D*7C
$GPGLL,3316.08127332,S,11815.13142417,E,075034.00,A,D*76
$GPGLL,3316.07949954,S,11815.13302165,E,075035.00,A,D*74
$GPGLL,3316.07721066,S,11815.13350411,E,075036.00,A,D*7E
$GPGLL,3316.07488791,S,11815.13335608,E,075037.00,A,D*79
$GPGLL,3316.07239209,S,11815.13319980,E,075038.00,A,D*7F
$GPGLL,3316.06971249,S,11815.13316374,E,075039.00,A,D*72
$GPGLL,3316.06693567,S,11815.13319839,E,075040.00,A,D*79
$GPGLL,3316.06411587,S,11815.13323479,E,075041.00,A,D*7F
$GPGLL,3316.06128236,S,11815.13321216,E,075042.00,A,D*73
$GPGLL,3316.05839243,S,11815.13312590,E,075043.00,A,D*73
$GPGLL,3316.05537297,S,11815.13304602,E,075044.00,A,D*71
$GPGLL,3316.05224507,S,11815.13295193,E,075045.00,A,D*7D
$GPGLL,3316.04906106,S,11815.13290771,E,075046.00,A,D*7E
$GPGLL,3316.04580360,S,11815.13288756,E,075047.00,A,D*73
$GPGLL,3316.04250146,S,11815.13282381,E,075048.00,A,D*74
$GPGLL,3316.03921697,S,11815.13279216,E,075049.00,A,D*7F
$GPGLL,3316.03597282,S,11815.13274219,E,075050.00,A,D*74
$GPGLL,3316.03270178,S,11815.13269823,E,075051.00,A,D*72
$GPGLL,3316.02943739,S,11815.13263421,E,075052.00,A,D*7C
$GPGLL,3316.02622920,S,11815.13256533,E,075053.00,A,D*77
$GPGLL,3316.02307450,S,11815.13255007,E,075054.00,A,D*79
$GPGLL,3316.01992770,S,11815.13253653,E,075055.00,A,D*7D
$GPGLL,3316.01680985,S,11815.13250539,E,075056.00,A,D*7A
$GPGLL,3316.01367089,S,11815.13242567,E,075057.00,A,D*7A
$GPGLL,3316.01052873,S,11815.13238973,E,075058.00,A,D*79
$GPGLL,3316.00737396,S,11815.13237870,E,075059.00,A,D*70
$GPGLL,3316.00424179,S,11815.13230887,E,075100.00,A,D*70
$GPGLL,3316.00111358,S,11815.13225761,E,075101.00,A,D*70
$GPGLL,3315.99801051,S,11815.13221060,E,075102.00,A,D*70
$GPGLL,3315.99492952,S,11815.13217855,E,075103.00,A,D*76
$GPGLL,3315.99185149,S,11815.13214302,E,075104.00,A,D*7A
$GPGLL,3315.98882680,S,11815.13203757,E,075105.00,A,D*74
$GPGLL,3315.98577818,S,11815.13192993,E,075106.00,A,D*72
$GPGLL,3315.98272981,S,11815.13186693,E,075107.00,A,D*7A
$GPGLL,3315.97971509,S,11815.13182947,E,075108.00,A,D*7C
$GPGLL,3315.97674084,S,11815.13178228,E,075109.00,A,D*70
$GPGLL,3315.97383621,S,11815.13169977,E,075110.00,A,D*7D
$GPGLL,3315.97091551,S,11815.13161761,E,075111.00,A,D*79
$GPGLL,3315.96796369,S,11815.13155290,E,075112.00,A,D*7A
$GPGLL,3315.96495098,S,11815.13149406,E,075113.00,A,D*72
$GPGLL,3315.96189290,S,11815.13143119,E,075114.00,A,D*76
$GPGLL,3315.95878399,S,11815.13136545,E,075115.00,A,D*74
$GPGLL,3315.95564550,S,11815.13129642,E,075116.00,A,D*7E
$GPGLL,3315.95258133,S,11815.13123424,E,075117.00,A,D*7E
$GPGLL,3315.94957595,S,11815.13114362,E,075118.00,A,D*7D
$GPGLL,3315.94657589,S,11815.13109931,E,075119.00,A,D*7E
$GPGLL,3315.94359775,S,11815.13104117,E,075120.00,A,D*7F
$GPGLL,3315.94060449,S,11815.13096439,E,075121.00,A,D*78
$GPGLL,3315.93761388,S,11815.13086163,E,075122.00,A,D*7B
$GPGLL,3315.93464142,S,11815.13079217,E,075123.00,A,D*78
$GPGLL,3315.93167731,S,11815.13077293,E,075124.00,A,D*79
$GPGLL,3315.92876103,S,11815.13067719,E,075125.00,A,D*71
$GPGLL,3315.92587994,S,11815.13065363,E,075126.00,A,D*7C
$GPGLL,3315.92302586,S,11815.13061381,E,075127.00,A,D*71
$GPGLL,3315.92018616,S,11815.13055238,E,075128.00,A,D*78
$GPGLL,3315.91730471,S,11815.13045633,E,075129.00,A,D*7A
$GPGLL,3315.91440667,S,11815.13037082,E,075130.00,A,D*7A
$GPGLL,3315.91149597,S,11815.13031324,E,075131.00,A,D*72
$GPGLL,3315.90853844,S,11815.13026693,E,075132.00,A,D*7E
$GPGLL,3315.90551621,S,11815.13017869,E,075133.00,A,D*74
$GPGLL,3315.90243060,S,11815.13007830,E,075134.00,A,D*79
$GPGLL,3315.89927940,S,11815.12996743,E,075135.00,A,D*79
$GPGLL,3315.89608948,S,11815.12990350,E,075136.00,A,D*70
$GPGLL,3315.89284329,S,11815.12986769,E,075137.00,A,D*75
$GPGLL,3315.88956986,S,11815.12989545,E,075138.00,A,D*73
$GPGLL,3315.88634448,S,11815.12989525,E,075139.00,A,D*70
$GPGLL,3315.88307172,S,11815.12985280,E,075140.00,A,D*73
$GPGLL,3315.87976632,S,11815.12979262,E,075141.00,A,D*7D
$GPGLL,3315.87635420,S,11815.12978218,E,075142.00,A,D*7B
$GPGLL,3315.87296187,S,11815.12978390,E,075143.00,A,D*7E
$GPGLL,3315.86960368,S,11815.12974177,E,075144.00,A,D*7E
$GPGLL,3315.86641297,S,11815.12972435,E,075145.00,A,D*77
$GPGLL,3315.86326533,S,11815.12962046,E,075146.00,A,D*78
$GPGLL,3315.86012398,S,11815.12965169,E,075147.00,A,D*71
$GPGLL,3315.85703143,S,11815.12960161,E,075148.00,A,D*73
$GPGLL,3315.85390225,S,11815.12952132,E,075149.00,A,D*78
$GPGLL,3315.85071373,S,11815.12944387,E,075150.00,A,D*75
$GPGLL,3315.84743859,S,11815.12935669,E,075151.00,A,D*73
$GPGLL,3315.84410237,S,11815.12929280,E,075152.00,A,D*79
$GPGLL,3315.84069186,S,11815.12919673,E,075153.00,A,D*70
$GPGLL,3315.83717196,S,11815.12907855,E,075154.00,A,D*7A
$GPGLL,3315.83367817,S,11815.12896851,E,075155.00,A,D*75
$GPGLL,3315.83011124,S,11815.12888928,E,075156.00,A,D*7D
$GPGLL,3315.82655420,S,11815.12879557,E,075157.00,A,D*70
$GPGLL,3315.82293194,S,11815.12881878,E,075158.00,A,D*7C
$GPGLL,3315.81929069,S,11815.12875720,E,075159.00,A,D*7E
$GPGLL,3315.81572326,S,11815.12881745,E,075200.00,A,D*73
$GPGLL,3315.81216568,S,11815.12882718,E,075201.00,A,D*70
$GPGLL,3315.80869435,S,11815.12877440,E,075202.00,A,D*7D
$GPGLL,3315.80526842,S,11815.12869788,E,075203.00,A,D*7E
$GPGLL,3315.80189100,S,11815.12859816,E,075204.00,A,D*7C
$GPGLL,3315.79859441,S,11815.12847341,E,075205.00,A,D*79
$GPGLL,3315.79550312,S,11815.12836682,E,075206.00,A,D*73
$GPGLL,3315.79249125,S,11815.12823263,E,075207.00,A,D*74
$GPGLL,3315.78956768,S,11815.12810729,E,075208.00,A,D*7B
$GPGLL,3315.78674511,S,11815.12809315,E,075209.00,A,D*7A
$GPGLL,3315.78420017,S,11815.12805607,E,075210.00,A,D*78
$GPGLL,3315.78186803,S,11815.12803482,E,075211.00,A,D*74
$GPGLL,3315.77977652,S,11815.12795195,E,075212.00,A,D*77
$GPGLL,3315.77785527,S,11815.12780461,E,075213.00,A,D*7E
$GPGLL,3315.77620270,S,11815.12749602,E,075214.00,A,D*70
$GPGLL,3315.77480560,S,11815.12730372,E,075215.00,A,D*73
$GPGLL,3315.77347373,S,11815.12741356,E,075216.00,A,D*78
$GPGLL,3315.77220129,S,11815.12805859,E,075217.00,A,D*7F
$GPGLL,3315.77122785,S,11815.12930250,E,075218.00,A,D*75
$GPGLL,3315.77092196,S,11815.13109656,E,075219.00,A,D*7B
$GPGLL,3315.77154217,S,11815.13291239,E,075220.00,A,D*7F
$GPGLL,3315.77308567,S,11815.13414185,E,075221.00,A,D*7A
$GPGLL,3315.77518662,S,11815.13461142,E,075222.00,A,D*71
$GPGLL,3315.77758580,S,11815.13453934,E,075223.00,A,D*71
$GPGLL,3315.78021112,S,11815.13444629,E,075224.00,A,D*7A
$GPGLL,3315.78295400,S,11815.13453446,E,075225.00,A,D*7D
$GPGLL,3315.78571836,S,11815.13458834,E,075226.00,A,D*78
$GPGLL,3315.78842524,S,11815.13465190,E,075227.00,A,D*73
$GPGLL,3315.79116700,S,11815.13469565,E,075228.00,A,D*73
$GPGLL,3315.79395279,S,11815.13473293,E,075229.00,A,D*75
$GPGLL,3315.79676794,S,11815.13476588,E,075230.00,A,D*7B
$GPGLL,3315.79963050,S,11815.13481977,E,075231.00,A,D*7A
$GPGLL,3315.80251993,S,11815.13488705,E,075232.00,A,D*71
$GPGLL,3315.80546769,S,11815.13494774,E,075233.00,A,D*71
$GPGLL,3315.80836533,S,11815.13505989,E,075234.00,A,D*74
$GPGLL,3315.81125125,S,11815.13509604,E,075235.00,A,D*7A
$GPGLL,3315.81411552,S,11815.13517601,E,075236.00,A,D*75
$GPGLL,3315.81701296,S,11815.13525152,E,075237.00,A,D*79
$GPGLL,3315.81990054,S,11815.13535424,E,075238.00,A,D*79
$GPGLL,3315.82277472,S,11815.13540817,E,075239.00,A,D*77
$GPGLL,3315.82564674,S,11815.13546229,E,075240.00,A,D*79
$GPGLL,3315.82851510,S,11815.13549035,E,075241.00,A,D*72
$GPGLL,3315.83136110,S,11815.13549917,E,075242.00,A,D*75
$GPGLL,3315.83417325,S,11815.13552521,E,075243.00,A,D*75
$GPGLL,3315.83693936,S,11815.13555683,E,075244.00,A,D*78
$GPGLL,3315.83976071,S,11815.13559568,E,075245.00,A,D*7D
$GPGLL,3315.84269963,S,11815.13561832,E,075246.00,A,D*7F
$GPGLL,3315.84571355,S,11815.13566790,E,075247.00,A,D*7F
$GPGLL,3315.84881074,S,11815.13573686,E,075248.00,A,D*70
$GPGLL,3315.85203684,S,11815.13588024,E,075249.00,A,D*73
$GPGLL,3315.85536248,S,11815.13590179,E,075250.00,A,D*7E
$GPGLL,3315.85861377,S,11815.13590821,E,075251.00,A,D*79
$GPGLL,3315.86185439,S,11815.13591628,E,075252.00,A,D*71
$GPGLL,3315.86503868,S,11815.13597668,E,075253.00,A,D*70
$GPGLL,3315.86812923,S,11815.13598952,E,075254.00,A,D*7D
$GPGLL,3315.87122225,S,11815.13603502,E,075255.00,A,D*72
$GPGLL,3315.87433915,S,11815.13602365,E,075256.00,A,D*7A
$GPGLL,3315.87741136,S,11815.13605241,E,075257.00,A,D*74
$GPGLL,3315.88048380,S,11815.13616224,E,075258.00,A,D*74
$GPGLL,3315.88355882,S,11815.13625365,E,075259.00,A,D*77
$GPGLL,3315.88672897,S,11815.13638762,E,075300.00,A,D*71
$GPGLL,3315.88995426,S,11815.13643292,E,075301.00,A,D*76
$GPGLL,3315.89319935,S,11815.13646548,E,075302.00,A,D*70
$GPGLL,3315.89652725,S,11815.13652379,E,075303.00,A,D*75
$GPGLL,3315.89987907,S,11815.13655398,E,075304.00,A,D*73
$GPGLL,3315.90315643,S,11815.13661255,E,075305.00,A,D*73
$GPGLL,3315.90630992,S,11815.13669240,E,075306.00,A,D*7D
$GPGLL,3315.90937180,S,11815.13678549,E,075307.00,A,D*71
$GPGLL,3315.91231796,S,11815.13688490,E,075308.00,A,D*79
$GPGLL,3315.91523027,S,11815.13692522,E,075309.00,A,D*72
$GPGLL,3315.91810641,S,11815.13691913,E,075310.00,A,D*7C
$GPGLL,3315.92099080,S,11815.13689228,E,075311.00,A,D*76
$GPGLL,3315.92389693,S,11815.13688752,E,075312.00,A,D*7A
$GPGLL,3315.92684630,S,11815.13692745,E,075313.00,A,D*77
$GPGLL,3315.92974897,S,11815.13699966,E,075314.00,A,D*77
$GPGLL,3315.93264551,S,11815.13708689,E,075315.00,A,D*7D
$GPGLL,3315.93554028,S,11815.13714177,E,075316.00,A,D*7A
$GPGLL,3315.93842387,S,11815.13726777,E,075317.00,A,D*70
$GPGLL,3315.94138186,S,11815.13734639,E,075318.00,A,D*77
$GPGLL,3315.94434766,S,11815.13740524,E,075319.00,A,D*7B
$GPGLL,3315.94733224,S,11815.13744486,E,075320.00,A,D*7B
$GPGLL,3315.95033157,S,11815.13749942,E,075321.00,A,D*73
$GPGLL,3315.95335440,S,11815.13754671,E,075322.00,A,D*75
$GPGLL,3315.95634541,S,11815.13754763,E,075323.00,A,D*72
$GPGLL,3315.95935622,S,11815.13755075,E,075324.00,A,D*7C
$GPGLL,3315.96231512,S,11815.13756919,E,075325.00,A,D*71
$GPGLL,3315.96525396,S,11815.13767556,E,075326.00,A,D*7F
$GPGLL,3315.96821714,S,11815.13775465,E,075327.00,A,D*7B
$GPGLL,3315.97120384,S,11815.13784850,E,075328.00,A,D*74
$GPGLL,3315.97420403,S,11815.13789380,E,075329.00,A,D*73
$GPGLL,3315.97718610,S,11815.13795837,E,075330.00,A,D*79
$GPGLL,3315.98022154,S,11815.13803213,E,075331.00,A,D*72
$GPGLL,3315.98325351,S,11815.13808918,E,075332.00,A,D*79
$GPGLL,3315.98627901,S,11815.13811588,E,075333.00,A,D*7D
$GPGLL,3315.98929098,S,11815.13812048,E,075334.00,A,D*78
$GPGLL,3315.99230321,S,11815.13815682,E,075335.00,A,D*7D
$GPGLL,3315.99529152,S,11815.13820680,E,075336.00,A,D*73
$GPGLL,3315.99832338,S,11815.13823797,E,075337.00,A,D*7F
$GPGLL,3316.00131202,S,11815.13828487,E,075338.00,A,D*78
$GPGLL,3316.00426618,S,11815.13835195,E,075339.00,A,D*7F
$GPGLL,3316.00724254,S,11815.13844371,E,075340.00,A,D*72
$GPGLL,3316.01022287,S,11815.13848847,E,075341.00,A,D*7F
$GPGLL,3316.01315426,S,11815.13860578,E,075342.00,A,D*7D
$GPGLL,3316.01584456,S,11815.13845569,E,075343.00,A,D*72
$GPGLL,3316.01858018,S,11815.13846780,E,075344.00,A,D*71
$GPGLL,3316.02128467,S,11815.13850667,E,075345.00,A,D*7E
$GPGLL,3316.02388635,S,11815.13856074,E,075346.00,A,D*72
$GPGLL,3316.02647241,S,11815.13859350,E,075347.00,A,D*78
$GPGLL,3316.02904637,S,11815.13867473,E,075348.00,A,D*71
$GPGLL,3316.03162387,S,11815.13871800,E,075349.00,A,D*78
$GPGLL,3316.03423468,S,11815.13875011,E,075350.00,A,D*7A
$GPGLL,3316.03684225,S,11815.13880619,E,075351.00,A,D*7F
$GPGLL,3316.03946692,S,11815.13883922,E,075352.00,A,D*71
$GPGLL,3316.04208547,S,11815.13887892,E,075353.00,A,D*73
$GPGLL,3316.04472521,S,11815.13893799,E,075354.00,A,D*7E
$GPGLL,3316.04737835,S,11815.13900312,E,075355.00,A,D*79
$GPGLL,3316.05006336,S,11815.13901892,E,075356.00,A,D*74
$GPGLL,3316.05277354,S,11815.13907346,E,075357.00,A,D*71
$GPGLL,3316.05552050,S,11815.13909920,E,075358.00,A,D*7D
$GPGLL,3316.05827385,S,11815.13917776,E,075359.00,A,D*7A
$GPGLL,3316.06103299,S,11815.13917905,E,075400.00,A,D*7B
$GPGLL,3316.06374169,S,11815.13923960,E,075401.00,A,D*70
$GPGLL,3316.06634335,S,11815.13932147,E,075402.00,A,D*74
$GPGLL,3316.06875831,S,11815.13933001,E,075403.00,A,D*73
$GPGLL,3316.07090062,S,11815.13929994,E,075404.00,A,D*76
$GPGLL,3316.07282102,S,11815.13922025,E,075405.00,A,D*79
$GPGLL,3316.07452657,S,11815.13906944,E,075406.00,A,D*7E
$GPGLL,3316.07605053,S,11815.13901425,E,075407.00,A,D*70
$GPGLL,3316.07746674,S,11815.13878605,E,075408.00,A,D*75
$GPGLL,3316.07882623,S,11815.13866790,E,075409.00,A,D*73
$GPGLL,3316.08025893,S,11815.13897677,E,075410.00,A,D*72
$GPGLL,3316.08153053,S,11815.13992916,E,075411.00,A,D*7B
$GPGLL,3316.08234125,S,11815.14147428,E,075412.00,A,D*7D
$GPGLL,3316.08249704,S,11815.14337561,E,075413.00,A,D*7A
$GPGLL,3316.08175883,S,11815.14519437,E,075414.00,A,D*79
$GPGLL,3316.08024586,S,11815.14641690,E,075415.00,A,D*74
$GPGLL,3316.07836887,S,11815.14673992,E,075416.00,A,D*73
$GPGLL,3316.07649405,S,11815.14646603,E,075417.00,A,D*73
$GPGLL,3316.07452092,S,11815.14617029,E,075418.00,A,D*74
$GPGLL,3316.07234079,S,11815.14598083,E,075419.00,A,D*72
$GPGLL,3316.07002283,S,11815.14590311,E,075420.00,A,D*78
$GPGLL,3316.06748600,S,11815.14585795,E,075421.00,A,D*72
$GPGLL,3316.06481004,S,11815.14578053,E,075422.00,A,D*7A
$GPGLL,3316.06202274,S,11815.14573620,E,075423.00,A,D*7A
$GPGLL,3316.05913908,S,11815.14569545,E,075424.00,A,D*7E
$GPGLL,3316.05624377,S,11815.14566355,E,075425.00,A,D*7E
$GPGLL,3316.05334297,S,11815.14564495,E,075426.00,A,D*7F
$GPGLL,3316.05044157,S,11815.14561800,E,075427.00,A,D*70
$GPGLL,3316.04761349,S,11815.14548437,E,075428.00,A,D*70
$GPGLL,3316.04476013,S,11815.14541785,E,075429.00,A,D*7B
$GPGLL,3316.04192496,S,11815.14529564,E,075430.00,A,D*76
$GPGLL,3316.03905826,S,11815.14521960,E,075431.00,A,D*71
$GPGLL,3316.03617819,S,11815.14520268,E,075432.00,A,D*70
$GPGLL,3316.03332499,S,11815.14516414,E,075433.00,A,D*7F
$GPGLL,3316.03043738,S,11815.14516711,E,075434.00,A,D*73
$GPGLL,3316.02755143,S,11815.14518804,E,075435.00,A,D*7C
$GPGLL,3316.02460117,S,11815.14516606,E,075436.00,A,D*79
$GPGLL,3316.02164922,S,11815.14511107,E,075437.00,A,D*76
$GPGLL,3316.01866209,S,11815.14509053,E,075438.00,A,D*7A
$GPGLL,3316.01568048,S,11815.14504983,E,075439.00,A,D*76
$GPGLL,3316.01272108,S,11815.14492407,E,075440.00,A,D*7E
$GPGLL,3316.00966821,S,11815.14479382,E,075441.00,A,D*7D
$GPGLL,3316.00655210,S,11815.14477538,E,075442.00,A,D*70
$GPGLL,3316.00340254,S,11815.14481772,E,075443.00,A,D*75
$GPGLL,3316.00020084,S,11815.14482696,E,075444.00,A,D*70
$GPGLL,3315.99704163,S,11815.14470770,E,075445.00,A,D*7F
$GPGLL,3315.99395503,S,11815.14460392,E,075446.00,A,D*7B
$GPGLL,3315.99094256,S,11815.14450444,E,075447.00,A,D*70
$GPGLL,3315.98792316,S,11815.14442746,E,075448.00,A,D*78
$GPGLL,3315.98491839,S,11815.14440338,E,075449.00,A,D*70
